longitude,latitude,name
-131.66100, 55.98300, "BAILEY HOT SPRING                    198"
-134.83900, 57.08500, "BARANOF WARM SPRINGS                 124"
-131.88200, 56.68000, "BARNES LAKE HOT SPRINGS               79"
-131.55900, 55.93300, "BELL ISLAND HOT SPRINGS              165"
-131.26700, 56.23300, "BRADFIELD CANAL HOT SPRINGS          135"
-146.05700, 65.05300, "CHENA HOT SPRINGS                    153"
-132.00500, 56.71700, "CHIEF SHAKES HOT SPRINGS             122"
-169.90000, 52.84000, "CHUGINADAK HOT SPRINGS                 H"
-144.63700, 65.48300, "CIRCLE HOT SPRINGS                   135"
-162.30000, 64.85000, "CLEAR CREEK HOT SPRINGS              149"
-149.54700, 66.21700, "DALL HOT SPRINGS                     129"
-133.64100, 55.33400, "DALTON (CRAIG) HOT SPRINGS           109"
-154.99300, 65.90800, "DENIKTOW RIDGE HOT SPRINGS             H"
-161.96100, 55.36800, "FUMAROLE                               H"
-178.79300, 51.77500, "FUMAROLES ON GARELOI ISLAND            H"
-178.77000, 51.76200, "FUMAROLES ON GARELOI ISLAND          144"
-177.16000, 51.92500, "FUMAROLES ON KANAGA ISLAND           219"
178.44400, 51.96700, "FUMAROLES ON LITTLE SITKIN ISLAND      H"
178.54700, 51.94400, "FUMAROLES ON LITTLE SITKIN ISLAND      H"
178.49100, 51.96300, "FUMAROLES ON LITTLE SITKIN ISLAND      H"
-156.49900, 57.86500, "GAS ROCKS HOT SPRING                 127"
-135.37400, 56.83600, "GODDARD HOT SPRINGS                  153"
-161.25000, 65.36700, "GRANITE MOUNTAIN HOT SPRINGS         120"
-154.83700, 64.92400, "HORNER HOT SPRINGS                   117"
-151.23800, 61.26700, "HOT LAKE IN BOTTOM OF CRATER PEAK      H"
-162.13700, 55.33400, "HOT SPRING AT WEST END EMMONS LAKE    68"
-153.88300, 67.40300, "HOT SPRING NEAR ARRIGETCH PEAKS        W"
-135.38500, 57.34800, "HOT SPRING NEAR FISH BAY             117"
-157.93300, 62.45000, "HOT SPRING NEAR FLAT                   W"
-155.09000, 58.24000, "HOT SPRING NEAR KATMAI PASS            H"
-162.46700, 64.70000, "HOT SPRING NEAR KWINIUK RIVER        106"
-150.00000, 65.45000, "HOT SPRING NEAR LITTLE MINOOK CR       H"
-157.01500, 57.17800, "HOT SPRING NEAR MOTHER GOOSE LAKE    138"
-160.49300, 55.86300, "HOT SPRING NEAR PORT MOLLER          160"
-160.69200, 61.05800, "HOT SPRING NEAR TULUKSAK RIVER         H"
-135.82000, 57.77100, "HOT SPRING NORTH ARM PERIL STRAIT    100"
-162.88500, 54.90000, "HOT SPRING ON AMAGAT ISLAND            H"
173.13000, 52.87000, "HOT SPRING ON ATTU ISLAND              W"
-142.84800, 65.04700, "HOT SPRING ON FLAT CREEK               W"
-169.71000, 52.96000, "HOT SPRING ON KAGAMIL ISLAND           H"
178.50000, 51.94000, "HOT SPRING ON LITTLE SITKIN ISLAND     H"
-172.31700, 52.35800, "HOT SPRING ON SEGUAM ISLAND            H"
-177.79000, 51.81000, "HOT SPRING ON TANAGA ISLAND            H"
-156.30000, 64.00200, "HOT SPRING ON TRIBUTARY OF INNOKO R    H"
-142.42000, 60.83700, "HOT SPRING ON TWELVEMILE CREEK         W"
-168.30000, 53.23300, "HOT SPRING ON UMNAK ISLAND           149"
-164.55000, 54.66000, "HOT SPRING ON UNIMAK ISLAND            H"
-153.98000, 58.92000, "HOT SPRING WEST OF CAPE DOUGLAS        H"
-162.48300, 55.21700, "HOT SPRINGS EAST OF COLD BAY         129"
-150.71700, 63.88300, "HOT SPRINGS EAST OF DIAMOND            W"
-156.76700, 66.36700, "HOT SPRINGS NEAR DIVISION BM         140"
-155.28000, 65.26700, "HOT SPRINGS NEAR DULBI RIVER         126"
-168.47700, 53.22300, "HOT SPRINGS NEAR GEYSER BIGHT        214"
-168.46300, 53.21300, "HOT SPRINGS NEAR GEYSER BIGHT        216"
-168.44500, 53.20700, "HOT SPRINGS NEAR GEYSER BIGHT          H"
-151.23300, 63.68300, "HOT SPRINGS NEAR GLACIER               W"
-165.85000, 54.15700, "HOT SPRINGS NEAR HOT SPRINGS BAY     181"
-168.35800, 53.25300, "HOT SPRINGS NEAR HOT SPRINGS COVE    158"
-168.36500, 53.24200, "HOT SPRINGS NEAR HOT SPRINGS COVE    192"
-137.09000, 58.37000, "HOT SPRINGS NEAR ICY POINT           153"
-162.90000, 65.21700, "HOT SPRINGS NEAR LAVA CREEK          127"
-166.91800, 53.85100, "HOT SPRINGS NEAR MAKUSHIN VOLCANO      H"
-166.87300, 53.84800, "HOT SPRINGS NEAR MAKUSHIN VOLCANO     94"
-163.25100, 54.94400, "HOT SPRINGS NEAR MORZHOVOI           145"
-154.89000, 58.27000, "HOT SPRINGS NEAR MT KATMAI             H"
-159.86300, 61.20000, "HOT SPRINGS NEAR OPHIR CREEK         145"
-157.11700, 66.15000, "HOT SPRINGS NEAR SOUTH BM            122"
-166.44800, 53.87700, "HOT SPRINGS NEAR SUMMER BAY            H"
-136.01700, 58.03300, "HOT SPRINGS NORTH END TENAKEE INLET  180"
-176.61000, 51.97000, "HOT SPRINGS ON ADAK ISLAND           154"
-165.66000, 54.23000, "HOT SPRINGS ON AKUN ISLAND             H"
-165.41000, 54.18000, "HOT SPRINGS ON AKUN ISLAND             H"
-174.26000, 52.34000, "HOT SPRINGS ON ATKA ISLAND             H"
-174.04200, 52.27000, "HOT SPRINGS ON ATKA ISLAND             H"
-174.25000, 52.19000, "HOT SPRINGS ON ATKA ISLAND           167"
-144.48300, 65.23300, "HOT SPRINGS ON BIG WINDY CREEK         H"
-168.03700, 53.95000, "HOT SPRINGS ON BOGOSLOF ISLAND         H"
-176.10800, 52.04200, "HOT SPRINGS ON GREAT SITKIN ISLAND   210"
-157.58300, 66.23300, "HOT SPRINGS ON HAWK RIVER            122"
-150.56000, 65.98300, "HOT SPRINGS ON LOWER RAY RIVER       142"
-157.73300, 61.36300, "HOT SPRINGS ON UPPER CHUILNUK RIVER    H"
-149.99300, 65.21600, "HUTLINANA HOT SPRINGS                109"
-150.85000, 66.34200, "KANUTI HOT SPRINGS                   151"
-151.23700, 65.81000, "KILO HOT SPRING                      122"
-153.31200, 65.45900, "LITTLE MELOZITNA HOT SPRINGS         176"
-166.93000, 53.89200, "MAKUSHIN VOLCANO FUMAROLES           310"
-150.63300, 65.00600, "MANLEY HOT SPRINGS                   133"
-154.69200, 65.12900, "MELOZI (MELOZITNA) SPRINGS           131"
-145.22200, 62.05800, "MINERAL SPRING (LOWER KLAWASI CONE)   82"
-135.33300, 57.64400, "NYLEN HOT SPRINGS                    120"
-144.04400, 69.33000, "OKPILAK SPRINGS                      119"
-164.92200, 65.09300, "PILGRIM SPRINGS                      178"
-154.03300, 65.97000, "POCAHONTAS HOT SPRINGS                 H"
-150.91900, 65.96300, "RAY RIVER HOT SPRING                 117"
-146.02700, 69.62700, "RED HILL SPRING                       91"
-155.06700, 67.28300, "REED RIVER HOT SPRING                122"
-164.71000, 65.85800, "SERPENTINE HOT SPRINGS               171"
-132.18000, 56.58000, "SOUTH STIKINE SPRING                   W"
-158.12000, 56.92800, "SURPRISE LAKE HOT SPRING              73"
-135.21700, 57.78100, "TENAKEE HOT SPRINGS                  109"
-168.09200, 53.44300, "THERMAL SPRINGS IN OKMOK CALDERA     212"
-148.84700, 65.27400, "TOLOVANA HOT SPRINGS                 140"
-154.00600, 66.19700, "TUNALKTEN LAKE HOT SPRING           null"
-132.28000, 56.66700, "TWIN LAKES HOT SPRINGS                70"
-145.00700, 62.08100, "UPPER KLAWASI WARM SPRINGS            86"
-156.51300, 57.83100, "W UKINEK SPRING                      178"
-157.51700, 66.38300, "WARM SPRING NEAR PURCELL MOUNTAIN     68"
-136.34100, 57.80700, "WHITE SULPHUR SPRINGS (HOONIAH H S)  111"
-93.02400, 34.54200, "BIG CHALYBEATE SPRING                 79"
-93.60700, 34.38400, "CADDO GAP SPRINGS                     95"
-93.05300, 34.51300, "HOT SPRINGS                          147"
-93.90800, 34.40600, "SPRING ON LITTLE MISSOURI RIVER       74"
-93.73900, 34.32100, "SPRING ON REDLAND MOUNTAIN            77"
-91.05300, 36.48000, "WARM SPRINGS                          82"
-110.73000, 32.28100, "AGUA CALIENTE                         86"
-110.96300, 31.69500, "AGUA CALIENTE SPRING                  90"
-113.32400, 32.98400, "AGUA CALIENTE SPRINGS                102"
-109.90200, 31.67300, "ANTELOPE SPRING                       79"
-109.26500, 31.36200, "ASTIN SPRING                          75"
-114.22100, 34.92500, "CALICHE SPRING                        79"
-113.42500, 35.21300, "CASA GRANDE SPRING                    72"
-110.40300, 33.51000, "CASSADORE SPRING                      73"
-112.36200, 33.98800, "CASTLE HOT SPRINGS                   115"
-109.29500, 33.05500, "CLIFTON HOT SPRINGS                  102"
-113.57200, 34.69500, "COFER HOT SPRING                      97"
-111.85200, 36.50900, "COLORADO POOL                         86"
-110.52800, 33.17000, "COOLIDGE DAM WARM SPRING              99"
-109.44000, 33.04600, "EAGLE CREEK HOT SPRINGS               97"
-113.85100, 35.16900, "FROST MINE SPRING                     70"
-109.35000, 32.97100, "GILLARD HOT SPRINGS                  180"
-109.77800, 33.00800, "GRAPEVINE SPRING                      91"
-109.15200, 33.40000, "HANNAH HOT SPRING                    133"
-110.24000, 32.33600, "HOOKERS HOT SPRINGS                  127"
-109.30300, 33.08000, "HOT SPRING                           138"
-114.74200, 35.98400, "HOT SPRING                             H"
-114.72500, 35.96000, "HOT SPRING                            86"
-109.90100, 32.99800, "INDIAN HOT SPRINGS                   118"
-113.49700, 34.56300, "KAISER HOT SPRING                     99"
-113.08100, 36.19600, "LAVA WARM SPRINGS                     90"
-109.51000, 31.59200, "LEWIS SPRING                          68"
-110.70800, 32.33700, "MERCER SPRING                         77"
-110.63900, 33.15200, "MESCAL WARM SPRING                    84"
-112.33200, 33.91500, "MITCHELL SPRING                       79"
-110.70300, 31.63700, "MONKEY SPRING                         82"
-110.22800, 32.32700, "N-O SPRING                            73"
-114.30800, 34.89600, "OATMAN WARM SPRINGS                   91"
-113.95600, 36.41800, "PAKOON SPRINGS                        86"
-110.81800, 33.20900, "PIONEER SPRING                        91"
-113.01300, 31.94300, "QUITOBAQUITO SPRINGS                  90"
-114.06800, 32.74100, "RADIUM HOT SPRINGS                   140"
-111.16500, 33.66900, "ROOSEVELT DAM SPRINGS                118"
-109.40200, 34.43600, "SALADO SPRINGS                        72"
-110.57400, 33.83100, "SALT BANKS                            78"
-109.29800, 33.07500, "SEEP                                  95"
-111.74400, 34.64900, "SODA SPRING                           75"
-110.70300, 33.25300, "SPRING                                75"
-110.66200, 33.16300, "SPRING                                82"
-111.60200, 34.40500, "SPRING                                72"
-112.69300, 34.44500, "SPRING                                72"
-111.70800, 34.07600, "SPRING (HOT)                          99"
-113.91300, 36.89500, "SPRINGS                               79"
-113.60800, 34.91000, "TOM BROWN WARM SPRING                 82"
-111.45300, 34.32000, "TONTO NATURAL BRIDGE SPRING           72"
-113.26700, 35.07700, "TROUT CREEK SPRING                    81"
-111.71000, 34.35700, "VERDE HOT SPRINGS                    104"
-110.37300, 32.98300, "WARM SPRING                           79"
-109.48200, 33.06200, "WARM SPRING                           73"
-110.31700, 33.78000, "WARM SPRING                            W"
-109.97500, 33.06800, "WARM SPRING                           90"
-110.24700, 32.34500, "WARM SPRINGS                          91"
-110.21300, 33.43800, "WARM SPRINGS                          86"
-110.23500, 33.74800, "null                                  83"
-113.81000, 35.11000, "null                                  73"
-110.66800, 33.19800, "null                                  99"
-122.44400, 39.02200, "ABBOTT MINE                           86"
-122.48400, 38.65400, "AETNA SPRINGS                         91"
-119.56000, 34.53800, "AGUA CALIENTE SPRING                 133"
-116.30500, 32.94700, "AGUA CALIENTE SPRINGS                101"
-117.01700, 33.36300, "AGUA TIBIA SPRING                     92"
-121.90400, 37.50300, "ALAMEDA WARM SPRINGS                  80"
-120.19500, 40.30200, "AMEDEE HOT SPRINGS                   203"
-122.70500, 38.77300, "ANDERSON SPRINGS                     108"
-117.26200, 34.18500, "ARROWHEAD SPRINGS WATERMAN HOT SPR  194"
-122.66700, 38.85000, "BAD CREEK SPRING                      81"
-117.38000, 35.84200, "BAINTER SPRING                        92"
-122.53300, 38.89200, "BAKER SODA SPRING                     76"
-120.03200, 41.16700, "BARE RANCH SPRING                     90"
-122.70000, 39.18300, "BARTLETT SPRINGS                     144"
-121.11000, 41.14300, "BASSETT HOT SPRINGS                  174"
-118.53200, 37.80200, "BENTON HOT SPRINGS                   134"
-118.48700, 37.88800, "BERTRAND RANCH SPRINGS                70"
-121.92400, 41.02500, "BIG BEND HOT SPRINGS                 180"
-122.78700, 39.00600, "BIG SODA SPRING                       90"
-118.88100, 37.23400, "BLANEY MEADOWS HOT SPRINGS           109"
-122.43200, 39.03200, "BLANK SPRING MANZANITA MINE SPRS    112"
-122.36900, 41.91900, "BOGUS SODA SPRINGS                    76"
-121.39900, 40.43400, "BOILING SPRINGS LAKE                 190"
-119.53800, 34.42300, "BORON SPRING                          72"
-120.01000, 39.22600, "BROCKWAY HOT SPRINGS                 131"
-119.32600, 38.23700, "BUCKEYE HOT SPRING                   140"
-121.50100, 40.45500, "BUMPASS HELL                         199"
-121.63500, 37.84700, "BYRON HOT SPRINGS                     96"
-118.67000, 35.88100, "CALIFORNIA HOT SPRINGS               122"
-122.57500, 38.58000, "CALISTOGA HOT SPRINGS                172"
-120.25000, 35.40000, "CAMETA WARM SPRING                    73"
-120.34800, 39.57300, "CAMPBELL HOT SPRINGS                 111"
-115.65400, 33.54500, "CANYON SPRING                         97"
-122.79900, 38.91600, "CARLSBAD SPRING                       76"
-119.84600, 35.43900, "CARNEROS SPRING                       90"
-118.85900, 37.64700, "CASA DIABLO HOT POOL                 165"
-118.91400, 37.64800, "CASA DIABLO HOT SPRINGS AND GEYSER   199"
-122.71700, 38.76800, "CASTLE ROCK SPRINGS                  163"
-118.88700, 37.63800, "CHANCE SPRING                         73"
-116.18900, 35.94600, "CHAPPO SPRING                         80"
-120.55500, 36.14400, "COALINGA MINERAL SPRINGS             112"
-115.32500, 33.62500, "CORN SPRING                           72"
-117.76900, 36.04500, "COSO HOT SPRINGS                     207"
-122.82100, 39.29200, "CRABTREE HOT SPRINGS                 106"
-121.76200, 37.63200, "CROHARE SPRING                        70"
-122.64200, 38.99500, "DAVIS SODA SPRING                     73"
-117.32400, 33.43600, "DE LUZ WARM SPRINGS                   85"
-118.79000, 37.67700, "DEHY HOT SPRING                      134"
-118.61200, 35.55800, "DELONEGHA HOT SPRINGS                112"
-118.66500, 35.52800, "DEMOCRAT HOT SPRINGS                 115"
-117.80200, 36.03600, "DEVILS KITCHEN                       207"
-121.43400, 40.44000, "DEVILS KITCHEN                       203"
-117.94800, 36.33000, "DIRTY SOCKS HOT SPRING                93"
-121.58400, 36.08400, "DOLANS HOT SPRING                     98"
-115.82700, 33.51200, "DOS PALMAS SPRING                     84"
-121.40900, 40.44400, "DRAKESBAD                            151"
-117.05700, 33.89600, "EDEN HOT SPRINGS                     109"
-118.49900, 34.15900, "EL ENCINO SPRINGS                     79"
-122.47500, 39.05700, "ELGIN MINE                           156"
-122.88200, 38.89700, "ENGLAND SPRINGS                       76"
-120.70000, 41.49200, "ESSEX SPRINGS                         91"
-117.91300, 33.66400, "FAIRVIEW HOT SPRING                   96"
-119.40000, 38.34800, "FALES HOT SPRINGS                    180"
-119.02500, 37.53200, "FISH CREEK HOT SPRINGS               110"
-116.03500, 33.40700, "FISH SPRINGS                          90"
-120.15800, 41.86000, "FORT BIDWELL HOT SPRING              113"
-122.66800, 39.34800, "FOUTS SPRINGS                         79"
-117.83300, 36.03100, "FUMAROLE                             203"
-122.65900, 38.97900, "FUMAROLE                               H"
-119.02800, 37.62200, "FUMAROLES                              H"
-116.98800, 33.83500, "GILMAN HOT SPRINGS                   117"
-121.47800, 37.10800, "GILROY HOT SPRINGS                   106"
-117.49500, 33.75300, "GLEN IVY HOT SPRINGS                 131"
-122.73100, 38.83500, "GORDON WARM SPRINGS                   97"
-117.38300, 37.02900, "GRAPEVINE SPRINGS                    100"
-122.49800, 39.00200, "GRIZZLY SPRING                        68"
-119.84600, 38.69900, "GROVERS HOT SPRINGS                  147"
-121.50700, 40.39300, "GROWLER HOT SPRING                   203"
-122.65500, 38.78500, "HARBIN SPRINGS                       120"
-120.00700, 40.24500, "HIGH ROCK SPRING                      86"
-116.94200, 33.96900, "HIGHLAND SPRINGS                     112"
-122.90700, 38.93600, "HIGHLAND SPRINGS                      84"
-122.77000, 38.92500, "HILDEBRANDE SPRING                    77"
-123.17000, 38.80000, "HOODS HOT SPRINGS                    100"
-122.74200, 38.99400, "HORSESHOE SPRING                     108"
-118.82800, 37.66500, "HOT CREEK GORGE SPRINGS              199"
-118.83400, 37.65600, "HOT CREEK SPRINGS                    171"
-121.52300, 41.60700, "HOT SPOT                             191"
-118.40800, 35.72700, "HOT SPRING                           113"
-119.08100, 38.04800, "HOT SPRING                           151"
-120.24300, 40.36400, "HOT SPRING                           204"
-118.81300, 37.70800, "HOT SPRING                            68"
-122.19700, 41.40700, "HOT SPRING  FUMAROLES                183"
-118.80600, 37.64800, "HOT SPRINGS                          129"
-121.27400, 41.01200, "HOT SPRINGS                            H"
-120.08000, 41.26600, "HOT SPRINGS (MENLO BATHS)            135"
-120.07800, 41.53400, "HOT SPRINGS (SURPRISE VALLEY)        208"
-121.42000, 40.44000, "HOT SPRINGS VALLEY                    83"
-122.67100, 38.85800, "HOWARD SPRINGS                       113"
-121.92600, 41.03600, "HUNT HOT SPRING                      136"
-120.93500, 40.14200, "INDIAN VALLEY HOT SPRINGS            106"
-120.89800, 36.77300, "IRIDAT SPRING                         73"
-123.58500, 39.65700, "JACKSON VALLEY MUD SPRINGS            80"
-116.18900, 32.61700, "JACUMBA HOT SPRINGS                  101"
-122.44500, 39.03300, "JONES FOUNTAIN OF LIFE SPRING        142"
-118.30200, 36.22900, "JORDAN HOT SPRINGS                   124"
-116.92300, 36.67500, "KEANE WONDER SPRING                   93"
-121.02800, 41.12600, "KELLOG HOT SPRINGS                   172"
-120.83400, 41.45000, "KELLY HOT SPRING                     198"
-118.37300, 37.25300, "KEOUGH HOT SPRINGS                   124"
-118.40400, 36.47700, "KERN HOT SPRING                      109"
-122.20200, 41.97300, "KLAMATH HOT SPRING                   156"
-120.20600, 41.67000, "LAKE CITY HOT SPRINGS                207"
-117.14500, 33.83700, "LAKEVIEW HOT SPRINGS                 100"
-120.21900, 34.50300, "LAS CRUCES HOT SPRINGS                99"
-120.08800, 41.60000, "LEONARDS HOT SPRINGS                 144"
-119.61300, 34.53700, "LITTLE CALIENTE SPRING                90"
-122.74800, 38.76700, "LITTLE GEYSERS                       210"
-118.83900, 37.69200, "LITTLE HOT CREEK SPRING              180"
-121.40500, 41.22900, "LITTLE HOT SPRING                    169"
-117.84800, 36.69800, "LITTLE HUNTER CANYON SPRINGS          81"
-121.44500, 37.57300, "LONE TREE MINERAL SPRING              73"
-122.55200, 38.39400, "LOS GUILICOS WARM SPRINGS             88"
-117.77100, 36.80600, "LOWER WARM SPRINGS                   110"
-122.72000, 38.55000, "MARK WEST SPRINGS                     88"
-119.30200, 34.48200, "MATILIJA HOT SPRINGS                 109"
-114.90700, 33.73300, "MCCOY SPRING                          82"
-120.54700, 39.72800, "MCLEAR WARM SPRINGS                   86"
-120.86000, 36.70300, "MERCEY HOT SPRINGS                   119"
-121.54500, 40.45700, "MILL CREEK SPRINGS                   150"
-121.79400, 37.39800, "MINERAL SPRINGS                       84"
-118.53400, 35.57500, "MIRACLE HOT SPRS  HOBO HOT SPRS      119"
-119.91700, 35.48300, "MIZE SPRING                           73"
-118.90200, 38.03300, "MONO BASIN WARM SPRINGS               88"
-119.01800, 37.32700, "MONO HOT SPRINGS                     109"
-119.63700, 34.46100, "MONTECITO HOT SPRINGS                118"
-121.51300, 40.38200, "MORGAN HOT SPRING                    205"
-115.59100, 33.21200, "MUD POTS                             100"
-115.57700, 33.20100, "MUD POTS                             100"
-115.58800, 33.34500, "MUD VOLCANOES                          W"
-115.59200, 33.28000, "MUD VOLCANOES                          W"
-115.57500, 33.28800, "MUD VOLCANOES                          W"
-115.57300, 33.34300, "MUD VOLCANOES                          W"
-115.58300, 33.32800, "MUD VOLCANOES                          W"
-115.60500, 33.31300, "MUD VOLCANOES                          W"
-115.57700, 33.31200, "MUD VOLCANOES                          W"
-115.57500, 33.33200, "MUD VOLCANOES                          W"
-123.30800, 39.42900, "MUIR SPRINGS                          68"
-117.15400, 33.55800, "MURRIETTA HOT SPRINGS                132"
-120.02500, 38.85000, "MYERS WARM SPRING                     75"
-122.26000, 38.51900, "NAPA ROCK SODA SPRING  PHILLIPS SOD   78"
-122.25900, 38.33900, "NAPA VICHY SPRINGS                    76"
-116.82100, 36.51200, "NEVARES SPRINGS                      102"
-116.67700, 34.82600, "NEWBERRY SPRING                       77"
-122.71400, 39.19600, "NEWMAN SPRINGS                        94"
-120.54200, 35.12200, "NEWSOM SPRINGS                        99"
-122.35700, 38.83300, "ONE SHOT MINING CO                    72"
-123.36200, 39.22700, "ORRS SPRINGS                         104"
-117.76300, 36.81400, "PALM SPRING                          120"
-116.54200, 33.82300, "PALM SPRINGS (AGUA CALIENTE SPRING)  104"
-116.83800, 34.27100, "PAN HOT SPRINGS                       88"
-119.02800, 37.99300, "PAOHA ISLAND SPRINGS                 181"
-116.81300, 35.14300, "PARADISE SPRING                      100"
-121.36700, 36.33100, "PARAISO SPRINGS (SULPHUR SPRING)      98"
-120.69200, 35.66300, "PASO ROBLES ARTESIAN SPRING          102"
-120.85100, 35.26900, "PECHO WARM SPRINGS                    95"
-123.47800, 39.69700, "PINCHES SPRING                        70"
-122.69300, 38.85000, "PINE CONE SPRING                      78"
-123.51800, 38.87400, "POINT ARENA HOT SPRINGS              111"
-120.91700, 41.82800, "POTHOLE SPRING                        78"
-122.50500, 39.19800, "PSEUDO COMPLEXION SPRING              81"
-122.59700, 39.05300, "QUIGLEY SODA SPRING                   82"
-119.07400, 37.61800, "REDS MEADOW HOT SPRINGS              115"
-116.15300, 35.87900, "RESTING SPRING                        80"
-122.70100, 38.95800, "RIVIERA BEACH SPRING                  93"
-122.62700, 37.88000, "ROCKY POINT SPRINGS                   90"
-121.30800, 37.43200, "SALT GRASS SPRINGS                    73"
-117.51100, 33.58900, "SAN JUAN HOT SPRINGS                 120"
-119.87900, 34.53700, "SAN MARCOS HOT SPRING                110"
-120.66600, 35.58200, "SANTA YSABEL SPRINGS (SULPHUR SPR)    92"
-116.42200, 35.68200, "SARATOGA SPRING                       82"
-121.56500, 36.93800, "SARGENT ESTATE WARM SPRING            77"
-118.47300, 35.62000, "SCOVERN HOT SPRINGS                  133"
-122.68900, 38.87300, "SEIGLER SPRINGS                      126"
-120.32500, 40.56800, "SELLICKS SPRINGS                      72"
-118.99800, 34.59600, "SESPE HOT SPRINGS                    194"
-120.10200, 41.61500, "SEYFERTH HOT SPRINGS                 185"
-116.35900, 35.58800, "SHEEP CREEK SPRING                    73"
-116.27300, 35.97800, "SHOSHONE SPRING                       90"
-123.02400, 38.69100, "SKAGGS SPRINGS                       135"
-121.64000, 36.12300, "SLATES HOT SPRINGS                   122"
-116.92700, 33.80000, "SOBODA HOT SPRINGS                   102"
-118.81600, 36.13000, "SODA SPRING                           72"
-122.57200, 38.95000, "SODA SPRING IN CACHE FORMATION        72"
-118.17600, 36.21000, "SODA SPRINGS                         100"
-116.10100, 35.14100, "SODA STATION SPRINGS                  75"
-122.65300, 38.83800, "SPIERS SPRINGS                        79"
-117.60400, 33.51400, "SPRING                                95"
-120.76400, 41.48400, "SPRING                                81"
-120.90100, 36.76500, "SPRING                                81"
-121.03600, 40.01900, "SPRING                                99"
-118.65100, 35.53600, "SPRING (HOT)                           W"
-121.04200, 37.08300, "SPRING IN ONEILL FOREBAY              70"
-116.25800, 35.88800, "SPRINGS                                W"
-117.89300, 36.49500, "SPRINGS                               86"
-118.72000, 37.63500, "SPRINGS                               72"
-121.96500, 37.92900, "SPRINGS                                W"
-120.47500, 41.19600, "SPRINGS                                W"
-118.73500, 37.71900, "SPRINGS                               75"
-119.90300, 43.51300, "SPRINGS AT TECOLOTE TUNNEL            93"
-120.06600, 41.21900, "SQUAW BATHS                          106"
-122.49800, 38.49000, "ST HELENA WHITE SULPHUR SPRING        97"
-119.34100, 34.49800, "STINGLEYS HOT SPRINGS                123"
-122.74700, 40.22300, "STINKING SPRINGS                     101"
-122.66400, 39.00200, "SULPHUR BANK                         156"
-122.77700, 38.78800, "SULPHUR CREEK                        120"
-121.84500, 36.61800, "SULPHUR HOT SPRING                   100"
-122.04600, 37.92400, "SULPHUR SPRING                        75"
-122.52500, 39.08800, "SULPHUR SPRING                        68"
-122.53800, 39.43000, "SULPHUR SPRING SALT SPRING           75"
-120.98500, 36.29500, "SULPHUR SPRINGS                       73"
-123.31900, 41.65900, "SULPHUR SPRINGS                       84"
-121.53600, 40.44700, "SULPHUR WORKS  TOPHET HOT SPRINGS    199"
-120.36700, 35.90800, "TABLE MOUNTAIN (SPRING)               88"
-121.54600, 36.23400, "TASSAJARA HOT SPRINGS                144"
-116.23000, 35.87100, "TECOPA HOT SPRINGS                   118"
-117.16700, 33.55100, "TEMECULA HOT SPRINGS                 116"
-121.37500, 40.42100, "TERMINAL GEYSER                      205"
-122.81000, 38.80200, "THE GEYSERS                          214"
-119.21700, 38.22500, "THE HOT SPRINGS                      113"
-118.80200, 37.66400, "THE TUB                              167"
-120.26500, 40.58000, "TIPTON SPRINGS                        70"
-122.05300, 38.31000, "TOLENAS SPRINGS                       68"
-119.20500, 38.24500, "TRAVERTINE HOT SPRINGS               180"
-116.82900, 36.44100, "TRAVERTINE SPRINGS                    90"
-122.11000, 40.23800, "TUSCAN SPRINGS                        86"
-117.48300, 34.22800, "TYLERS BATH SPRING                    92"
-117.73600, 36.83000, "UPPER WARM SPRING                      W"
-116.42300, 32.97000, "VALLECITOS SPRING                     79"
-122.18800, 38.12500, "VALLEJO WHITE SULPHUR SPRINGS         68"
-120.82700, 38.19200, "VALLEY SPRINGS                        75"
-123.15900, 39.16600, "VICHY SPRINGS                         85"
-119.34600, 34.50200, "VICKERS HOT SPRINGS                  124"
-118.77600, 36.11700, "WARD SPRING                           70"
-118.56100, 34.60500, "WARM SPRING                           92"
-116.93100, 35.96700, "WARM SPRING                            W"
-120.40300, 41.16000, "WARM SPRING                           70"
-120.52100, 41.25200, "WARM SPRING                           75"
-120.93600, 41.95900, "WARM SPRING                            W"
-119.11800, 38.20300, "WARM SPRING                           77"
-118.78300, 35.14800, "WARM SPRING                            W"
-117.17300, 34.34000, "WARM SPRING  HOT SPRING              108"
-117.21700, 36.12200, "WARM SULPHUR SPRINGS                  80"
-116.63100, 33.28400, "WARNER HOT SPRING                    138"
-120.25700, 40.35500, "WENDEL HOT SPRINGS                   205"
-120.38300, 41.19000, "WEST VALLEY RESERVOIR HOT SPRING     171"
-119.29100, 34.50700, "WHEELER SPRINGS                      102"
-118.34800, 33.73100, "WHITES POINT HOT SPRINGS             115"
-118.80800, 37.63000, "WHITMORE HOT SPRINGS                  95"
-122.42100, 39.03900, "WILBUR SPRINGS                       153"
-119.04400, 34.58200, "WILLETT HOT SPRINGS                  108"
-115.58000, 33.21700, "WISTER MUD POT                       100"
-117.32500, 33.67000, "WRENDEN HOT SPRS  ELSINORE HOT SPRS  125"
-118.47800, 35.43300, "YATES HOT SPRINGS                    100"
-120.02400, 39.92200, "ZAMBONI HOT SPRINGS                    H"
-122.28500, 38.75500, "ZIM ZIM SPRING                        70"
-116.74200, 33.54000, "null                                   W"
-117.07800, 34.12400, "null                                  90"
-120.68700, 35.64900, "null                                 108"
-121.84300, 36.33100, "null                                 114"
-118.78100, 37.66700, "null                                 127"
-118.92500, 37.65300, "null                                  72"
-120.05400, 41.20800, "null                                 109"
-120.72300, 41.36000, "null                                  81"
-120.52500, 41.46600, "null                                  72"
-120.56700, 41.54200, "null                                  81"
-122.27100, 38.32100, "null                                  83"
-122.50900, 38.35700, "null                                  70"
-122.56700, 38.38900, "null                                  73"
-122.76300, 38.77700, "null                                 120"
-122.65400, 38.95000, "null                                   W"
-122.72400, 38.96300, "null                                   W"
-122.73600, 38.98600, "null                                  95"
-119.50400, 38.62700, "null                                   W"
-119.71300, 38.77300, "null                                 149"
-122.59200, 39.02200, "null                                  81"
-122.72500, 39.20000, "null                                  90"
-120.06400, 39.98000, "null                                 108"
-122.16900, 38.10100, "null                                  73"
-121.87400, 37.89500, "null                                  70"
-119.13900, 37.41300, "null                                  95"
-119.01600, 37.83600, "null                                  97"
-119.03600, 37.94100, "null                                  91"
-119.13900, 37.98900, "null                                  72"
-118.27200, 37.26800, "null                                  84"
-118.80800, 37.60700, "null                                  73"
-118.75600, 37.63900, "null                                  86"
-118.76400, 37.65700, "null                                 120"
-121.68300, 36.25000, "null                                   W"
-120.68400, 36.64000, "null                                  75"
-119.72700, 35.36300, "null                                  93"
-117.90300, 35.94000, "null                                  80"
-118.39300, 33.80200, "null                                  77"
-117.10300, 33.86500, "null                                   W"
-107.03400, 37.74100, "ANTELOPE SPRING                       90"
-107.05400, 37.72800, "BIRDSIE WARM SPRING                   86"
-106.05600, 38.65300, "BROWNS CANYON WARM SPRING             77"
-106.07200, 38.63400, "BROWNS GROTTO WARM SPRING             73"
-105.26100, 38.43300, "CANON CITY HOT SPRINGS               104"
-107.10000, 38.27200, "CEBOLLA HOT SPRINGS                  106"
-106.82500, 38.83600, "CEMENT CREEK HOT SPRING               77"
-106.89100, 39.01200, "CONUNDRUM HOT SPRINGS                100"
-106.22600, 38.81200, "COTTONWOOD HOT SPRINGS               136"
-105.78400, 37.29400, "DEXTER SPRING                         68"
-107.10600, 39.62800, "DOTSERO WARM SPRINGS                  90"
-108.09100, 37.77100, "DUNTON HOT SPRING                    108"
-105.27700, 39.93200, "ELDORADO SPRINGS                      79"
-108.11700, 37.74700, "GEYSER WARM SPRING                    82"
-107.32200, 39.54800, "GLENWOOD SPRINGS                     124"
-105.79300, 39.01700, "HARTSEL HOT SPRINGS                  126"
-106.17800, 38.73200, "HORTENSE HOT SPRING                  181"
-106.11300, 40.07300, "HOT SULPHUR SPRINGS                  111"
-105.51200, 39.73900, "IDAHO SPRINGS                        115"
-107.95200, 40.46700, "JUNIPER HOT SPRINGS                  100"
-108.05400, 38.01400, "LEMON HOT SPRING                      91"
-106.51500, 38.51700, "LOWER WAUNITA HOT SPRINGS            167"
-105.92400, 38.16800, "MINERAL HOT SPRINGS                  140"
-106.16200, 38.73300, "MOUNT PRINCETON HOT SPRINGS          133"
-107.73600, 38.13300, "ORVIS HOT SPRING                     126"
-107.67200, 38.02100, "OURAY HOT SPRINGS                    156"
-107.01100, 37.26300, "PAGOSA SPRINGS                       136"
-108.13100, 37.75200, "PARADISE WARM SPRING                 115"
-107.22400, 39.22700, "PENNY HOT SPRINGS                    133"
-107.34400, 37.31300, "PIEDRA RIVER HOT SPRINGS             108"
-107.80300, 37.45300, "PINKERTON HOT SPRINGS                 90"
-106.07600, 38.49800, "PONCHA HOT SPRINGS                   160"
-106.94500, 37.51100, "RAINBOW HOT SPRINGS                  104"
-106.87300, 38.81600, "RANGER HOT SPRING                     81"
-106.06200, 39.16400, "RHODES WARM SPRING                    75"
-106.84900, 40.55900, "ROUTT HOT SPRINGS                    147"
-106.31700, 37.75100, "SHAW SPRINGS                          86"
-107.41200, 39.55200, "SOUTH CANYON HOT SPRINGS             118"
-106.82700, 40.48300, "STEAMBOAT SPRINGS                    102"
-106.80500, 37.03300, "STINKING SPRINGS                      81"
-105.89100, 38.47900, "SWISSVALE WARM SPRINGS                82"
-107.84600, 37.39100, "TRIMBLE HOT SPR  STRATTEN WARM SPR    97"
-107.84900, 37.40000, "TRIPP HOT SPRINGS                    111"
-106.50800, 38.51400, "UPPER WAUNITA HOT SPRINGS            176"
-105.81600, 38.19200, "VALLEY VIEW HOT SPRINGS               99"
-106.83100, 37.74700, "WAGON WHEEL GAP HOT SPRINGS          135"
-105.91000, 38.48500, "WELLSVILLE WARM SPRING                91"
-82.23300, 27.07400, "LITTLE SALT SPRING                    81"
-82.26100, 27.06000, "WARM MINERAL SPRINGS (BIG SALT SPR)   86"
-84.43800, 32.92000, "BARKER SPRING                         73"
-84.37400, 33.03700, "LIFSEY SPRING                         79"
-84.65000, 32.86200, "PARKMAN SPRING                        77"
-84.32700, 33.01800, "TAYLOR SPRING                         75"
-84.49900, 32.96400, "THUNDERING SPRING                     75"
-84.54700, 32.87300, "TOM BROWN SPRING                      68"
-84.69000, 32.89300, "WARM SPRINGS                          88"
-154.92800, 19.59300, "AKINS SPRING                          84"
-154.84700, 19.46000, "ISAAC HALE PARK SPRING                97"
-154.94300, 19.46600, "STEAM VENTS                            H"
-155.62000, 19.42100, "STEAM VENTS                            H"
-155.31100, 19.39000, "STEAM VENTS                            H"
-155.18800, 19.37300, "STEAM VENTS                            H"
-155.27700, 19.40700, "STEAM VENTS                            H"
-155.27200, 19.43400, "STEAM VENTS                            H"
-155.59800, 19.48600, "STEAM VENTS                            H"
-155.38400, 19.20100, "WAIWELAWELA POINT SPRING              90"
-154.87600, 19.49600, "WARM VAPOR                             W"
-112.00400, 43.03800, "ALKALI FLATS WARM SPRING              93"
-111.10900, 43.22700, "ALPINE WARM SPRING                    99"
-116.04500, 44.64000, "ARLING HOT SPRING                     90"
-114.14200, 42.40500, "ARTESIAN CITY HOT SPRINGS             99"
-111.45800, 44.09100, "ASHTON WARM SPRING                    79"
-115.11600, 43.81100, "ATLANTA HOT SPRINGS                  140"
-115.98500, 44.62100, "BADLEY WARM SPRING                   100"
-114.82600, 42.68800, "BANBURY HOT SPRING                   138"
-113.44900, 44.26900, "BARNEY HOT SPRINGS                    82"
-114.90800, 43.29300, "BARRONS HOT SPRING                   167"
-115.04600, 45.51200, "BARTH HOT SPRINGS                    140"
-114.81800, 44.26400, "BASIN CREEK HOT SPRING               133"
-115.56300, 43.71800, "BASSET HOT SPRING                      H"
-115.72300, 42.79700, "BAT HOT SPRING  PENCE HOT SPRING     117"
-111.92800, 42.13300, "BATTLE CREEK HOT SPRINGS             183"
-115.07000, 43.60300, "BAUMGARTNER HOT SPRING               111"
-111.26400, 42.11500, "BEAR LAKE HOT SPRINGS                118"
-115.23900, 44.44500, "BEAR VALLEY HOT SPRING                 W"
-114.17300, 44.52300, "BEARDSLEY HOT SPRINGS                109"
-116.03700, 44.46500, "BELVIDERE HOT SPRING                 111"
-114.33800, 45.30700, "BIG CREEK HOT SPRINGS                199"
-113.50400, 44.64000, "BIG EIGHTMILE CREEK WARM SPRING       91"
-114.73800, 43.70100, "BIG SMOKEY HOT SPRING                  H"
-112.69600, 44.45400, "BIG SPRING                            73"
-115.66300, 44.77000, "BILLY HOT SPRING                       H"
-111.59200, 42.92800, "BLACKFOOT RESERVOIR WARM SPRING       72"
-111.74300, 42.98600, "BLACKFOOT RIVER WARM SPRING           79"
-113.39000, 42.10700, "BLM WELL (FRAZIER HOT SPRING)        203"
-115.85600, 44.36400, "BOILING SPRINGS                      185"
-115.31400, 44.15700, "BONNEVILLE HOT SPRINGS               185"
-116.31200, 45.20100, "BOULDER CREEK SPRING                  82"
-115.28800, 43.54000, "BRIDGE HOT SPRINGS                   138"
-111.49500, 43.21000, "BROCKMAN CREEK HOT SPRING             95"
-115.48600, 43.77900, "BROWN CREEK HOT SPRING               122"
-115.74200, 42.79800, "BRUNEAU HOT SPRING                   106"
-115.71500, 42.77900, "BUCKAROO HOT SPRING                  109"
-115.76200, 44.43000, "BULL CREEK HOT SPRINGS                 H"
-115.91200, 45.27700, "BURGDORF HOT SPRINGS                 113"
-116.03100, 44.41600, "CABARTON HOT SPRING                  160"
-115.14900, 44.39800, "CAPE HORN WARM SPRINGS                95"
-116.11200, 44.58300, "CASCADE RESERVOIR HOT SPRING           H"
-114.41500, 43.56100, "CLARENDON HOT SPRINGS                126"
-111.71600, 42.33300, "CLEVELAND HOT SPRINGS                151"
-114.93900, 46.46600, "COLGATE WARM SPRINGS                 106"
-113.91800, 43.32700, "CONDIE HOT SPRINGS                   124"
-115.84200, 44.04500, "CORDER HOT SPRING                    131"
-116.30500, 44.66900, "COUNCIL MTN HOT SPRINGS              154"
-116.71000, 44.21100, "COVE CREEK HOT SPRING                131"
-116.01500, 45.43100, "COW FLATS HOT SPRING                 138"
-114.85500, 44.78500, "COX HOT SPRINGS                      131"
-115.34000, 43.12900, "COYOTE HOT SPRING                    135"
-116.74500, 44.30600, "CRANE CREEK HOT SPRINGS              198"
-114.01600, 44.72000, "CRONKS CANYON HOT SPRING             115"
-115.29500, 44.51600, "DAGGER CREEK HOT SPRING              110"
-115.82900, 44.05100, "DAN HODGES HOT SPRING                140"
-115.81900, 44.06000, "DANSKIN CREEK HOT SPRING             106"
-115.84100, 44.38200, "DASH CREEK HOT SPRINGS               138"
-116.05200, 44.09200, "DEER HOT SPRINGS                     176"
-115.70300, 44.71700, "DOLLAR CREEK WARM SPRING              68"
-115.85100, 44.04400, "DONLAY RANCH HOT SPRING              131"
-112.08500, 42.38800, "DOWNATA HOT SPRINGS                  109"
-113.63200, 42.10200, "DURFEE SPRING                        102"
-115.43400, 43.78900, "DUTCH FRANK HOT SPRING               149"
-114.53900, 43.77900, "EASLEY HOT SPRINGS                   100"
-114.62700, 43.42300, "ELK CREEK HOT SPRING                 126"
-114.88500, 44.24500, "ELKHORN HOT SPRING                   136"
-111.71500, 43.66000, "ELKHORN WARM SPRING                   72"
-116.75400, 44.53100, "FAIRCHILD HOT SPRING                 126"
-111.41400, 43.42300, "FALL CREEK MINERAL SPRINGS            77"
-114.56300, 44.89600, "FORGE CREEK HOT SPRINGS                H"
-114.65200, 44.66100, "FOSTER RANCH HOT SPRINGS             135"
-116.70700, 43.41400, "GIVENS HOT SPRINGS                   117"
-115.82000, 44.40000, "GOAT HOT SPRINGS                       H"
-115.94300, 44.67600, "GOLD FORK HOT SPRING                 127"
-113.92900, 44.90500, "GOLDBUG HOT SPRING                   113"
-115.16700, 44.16000, "GRANDJEAN HOT SPRING                   H"
-115.40100, 43.80300, "GRANITE CREEK HOT SPRING             131"
-113.56400, 42.08500, "GRAPE CREEK WARM SPRING               72"
-115.83400, 44.39200, "GROUND HOG HOT SPRINGS               100"
-114.41000, 43.68400, "GUYER HOT SPRINGS                    158"
-114.35400, 43.50600, "HAILEY HOT SPRINGS                   131"
-115.55300, 44.07700, "HAVEN LODGE HOT SPRING               147"
-111.68700, 43.64400, "HEISE HOT SPRINGS                    120"
-111.55600, 42.91100, "HENRY WARM SPRING                     86"
-116.39600, 43.83100, "HIGHLAND LAND CO WARM SPRING          73"
-115.69600, 44.84700, "HOLDOVER HOT SPRING                  117"
-114.46300, 45.50300, "HORSE CREEK HOT SPRINGS              109"
-114.79000, 44.83600, "HOSPITAL HOT SPRING                  115"
-115.50500, 44.90000, "HOT CREEK WARM SPRING                 97"
-115.90700, 44.05400, "HOT SPRING CAMPGROUND                124"
-115.51800, 43.15500, "HOT SPRINGS                          158"
-114.85900, 42.69200, "HOT SULPHUR (MIRACLE HOT) SPRINGS    131"
-114.92900, 43.04700, "HOT SULPHUR LAKE                      81"
-115.73900, 42.76200, "INDIAN BATHTUB HOT SPRINGS            99"
-115.12900, 44.79900, "INDIAN CREEK HOT SPRING              190"
-115.65000, 42.33300, "INDIAN HOT SPRINGS                   160"
-112.87200, 42.72500, "INDIAN SPRINGS                        90"
-114.87200, 46.46300, "JERRY JOHNSON HOT SPRINGS            118"
-116.73200, 44.49500, "KEITHLY WARM SPRING                   86"
-112.43600, 42.33900, "KENT WARM SPRING                      75"
-115.54300, 44.07200, "KIRKHAM HOT SPRINGS                  149"
-116.20300, 44.97100, "KRIGBAUM HOT SPRINGS                 109"
-115.21500, 44.83100, "KWISKWIS HOT SPRING                  156"
-113.10700, 42.62500, "LAKE WALCOTT HOT SPRING               70"
-116.63000, 44.58600, "LAKEY HOT SPRING                     158"
-115.30500, 43.11600, "LATTY HOT SPRING                     144"
-112.00800, 42.62100, "LAVA HOT SPRINGS                     113"
-115.04600, 43.81700, "LEGGIT CREEK HOT SPRING                H"
-115.82600, 45.07000, "LICK CREEK WARM SPRING                91"
-112.55400, 44.14500, "LIDY HOT SPRINGS                     124"
-114.94800, 43.60500, "LIGHTFOOT HOT SPRINGS                133"
-114.08800, 44.38200, "LITTLE ANTELOPE FLAT WARM SPRING      93"
-115.60400, 43.72400, "LOFTUS HOT SPRING                    129"
-116.36800, 42.86500, "LOWER BIRCH SPRING                    77"
-114.49900, 43.97400, "LOWER BOWERY HOT SPRING              129"
-115.72500, 42.76700, "LOWER INDIAN BATHTUB HOT SPRINGS     108"
-114.80600, 44.79900, "LOWER LOON CREEK HOT SPRING          120"
-114.50400, 42.01300, "MAGIC HOT SPRINGS                    109"
-114.39900, 43.32800, "MAGIC HOT SPRINGS                    163"
-112.23900, 42.17300, "MALAD WARM SPRING                     77"
-111.70700, 42.30800, "MAPLE GROVE HOT SPRINGS              172"
-113.52300, 42.44700, "MARSH CREEK HOT SPRING               104"
-113.51100, 42.44900, "MARSH GULLY HOT SPRINGS              106"
-115.02100, 46.00600, "MARTEN HOT SPRINGS                     H"
-115.12300, 44.81300, "MIDDLE FORK INDIAN CREEK HOT SPRING  162"
-113.77900, 43.36300, "MILFORD SWEAT HOT SPRING             111"
-115.69300, 44.64200, "MOLLYS HOT SPRING                    138"
-115.98800, 43.58800, "MORES CREEK HOT SPRING                 H"
-114.83800, 44.26000, "MORMON BEND HOT SPRING               100"
-114.70400, 44.95100, "MORMON RANCH WARM SPRING               H"
-114.82900, 43.25500, "MORMON RESERVOIR WARM SPRING           W"
-111.72600, 42.37400, "MOUND VALLEY WARM SPRING               W"
-115.36300, 42.03200, "MURPHY HOT SPRINGS                   126"
-114.50900, 42.33700, "NAT-SOO-PAH WARM SPRING               97"
-115.57100, 43.75500, "NINEMEYER HOT SPRINGS                169"
-113.86100, 42.17300, "OAKLEY HOT SPRING                    118"
-117.07100, 44.35400, "OLD HOMESTEAD WARM SPRING              W"
-114.73400, 44.65200, "OWEN CABIN HOT SPRING                133"
-114.46300, 45.34400, "OWL CREEK HOT SPRINGS                122"
-115.26700, 43.55300, "PARADISE HOT SPRINGS                 126"
-111.37800, 42.42600, "PESCADERO WARM SPRING                 79"
-114.80000, 43.99000, "PIERSON HOT SPRINGS                  109"
-111.43500, 43.79100, "PINCOCK (GREEN CANYON) HOT SPRINGS   111"
-115.68500, 44.06200, "PINE FLAT HOT SPRINGS                138"
-115.20700, 44.72100, "PISTOL CREEK HOT SPRINGS             115"
-112.34800, 42.15600, "PLEASANTVIEW WARM SPRINGS             77"
-114.89200, 42.63700, "POISON SPRINGS                         H"
-115.56000, 43.76000, "POOL CREEK HOT SPRING                108"
-111.98300, 42.78100, "PORTNEUF RIVER WARM SPRING            93"
-114.83000, 43.57600, "PREIS HOT SPRING                     106"
-112.22600, 42.02500, "PRICES WARM SPRING                    77"
-114.70700, 46.23500, "PROSPECTOR HOT SPRINGS                 H"
-115.19200, 43.83100, "QUEENS RIVER HOT SPRING                H"
-115.66400, 43.60500, "RATTLESNAKE HOT SPRING               133"
-115.19800, 45.78800, "RED RIVER HOT SPRINGS                131"
-113.44600, 42.28600, "RICE SPRING  WARD SPRING              72"
-116.17200, 45.41600, "RIGGINS HOT SPRINGS                  106"
-114.67600, 44.24700, "ROBINSON BAR HOT SPRINGS             131"
-112.90600, 42.54500, "ROCKLAND WARM SPRINGS                100"
-115.89100, 44.25300, "ROCKY CANYON HOT SPRINGS             120"
-114.86500, 44.10100, "ROSALYS WARM SPRING                  106"
-116.35300, 43.95100, "ROYSTONE HOT SPRINGS                 151"
-114.93700, 45.85200, "RUNNING WARM SPRINGS                 106"
-113.88400, 43.36700, "RUSH WARM SPRING                      72"
-114.58500, 43.80500, "RUSSIAN JOHN HOT SPRING              100"
-115.17700, 44.16000, "SACAJAWEA HOT SPRINGS                153"
-114.85600, 42.70400, "SALMON FALLS HOT SPRING              153"
-113.83600, 45.09500, "SALMON HOT SPRING                    113"
-113.58800, 42.24000, "SEARS SPRING                          84"
-115.80700, 45.17000, "SECESH HOT SPRING                      H"
-113.60500, 45.01300, "SHARKEY HOT SPRING                   126"
-115.65800, 43.69600, "SHEEP CREEK BRIDGE HOT SPRING        142"
-115.56100, 45.03500, "SHEEP CREEK HOT SPRING               136"
-115.19700, 44.62800, "SHEEPEATER HOT SPRINGS                 H"
-114.60100, 44.62800, "SHOWER BATH SPRINGS                  122"
-115.80200, 44.33000, "SILVER CREEK HOT SPRING              102"
-114.81600, 43.64700, "SKILLERN HOT SPRINGS                 140"
-114.62400, 44.17100, "SLATE CREEK HOT SPRING               122"
-115.61700, 43.72000, "SMITH CABIN HOT SPRING               138"
-114.61600, 45.04200, "SNOWSHOE JOHNSONS HOT SPRING         108"
-111.60400, 42.65700, "SODA SPRINGS                          82"
-115.69700, 44.63200, "SOUTH FORK PLUNGE                    129"
-111.92800, 42.11900, "SQUAW HOT SPRINGS                    163"
-114.92900, 44.22400, "STANLEY HOT SPRING                   106"
-115.25800, 46.31600, "STANLEY HOT SPRINGS                  120"
-116.44200, 44.85300, "STARKEY HOT SPRINGS                  131"
-111.64300, 42.65500, "STEAMBOAT HOT SPRING                  88"
-116.29600, 45.15200, "STINKY WARM SPRING                    88"
-115.44400, 43.78800, "STRAIGHT CREEK HOT SPRING            144"
-115.09000, 46.13800, "STUART HOT SPRINGS                     H"
-114.44300, 44.25400, "SULLIVAN HOT SPRINGS                 106"
-115.07200, 44.58500, "SULPHUR CREEK HOT SPRING               H"
-115.30100, 44.55400, "SULPHUR CREEK HOT SPRING               H"
-114.74800, 44.26800, "SUNBEAM HOT SPRINGS                  169"
-115.01800, 44.73300, "SUNFLOWER FLAT HOT SPRING            109"
-114.99300, 44.73000, "SUNFLOWER HOT SPRINGS                149"
-116.32500, 43.97200, "SWEET WARM SPRING                     68"
-112.45800, 42.95700, "TADPOLE WARM SPRING                   68"
-111.18900, 43.60700, "TAYLOR SPRINGS                        68"
-115.72200, 44.91400, "TEAPOT HOT SPRING                    142"
-116.20800, 43.67700, "TERTELING HOT SPRINGS                106"
-115.01000, 44.72100, "THOMAS CREEK RANCH HOT SPRING        138"
-116.33200, 43.16100, "THOMAS FLATS WARM SPRING              75"
-114.23700, 42.01500, "THOROUGHBRED WARM SPRINGS             69"
-115.30800, 43.50000, "TOWNE CREEK WARM SPRING               75"
-115.74900, 44.62600, "TRAIL CREEK HOT SPRING               122"
-111.72600, 42.33700, "TREASURETON HOT SPRINGS               95"
-114.98800, 43.03800, "TSCHANNE HOT SPRING                  109"
-115.69600, 43.67100, "TWIN SPRINGS                         151"
-114.73900, 44.64500, "UPPER LOON CREEK HOT SPRINGS         145"
-115.58300, 43.73800, "VAUGHN HOT SPRING                    154"
-115.69500, 44.56800, "VULCAN HOT SPRINGS                   190"
-114.93100, 43.38300, "WARDROP HOT SPRING                   147"
-114.48700, 43.64100, "WARFIELD HOT SPRING                  124"
-115.67100, 44.63900, "WARM LAKE SPRINGS                      W"
-115.86300, 43.81600, "WARM SPRINGS                         108"
-112.63900, 44.25700, "WARM SPRINGS                          84"
-115.99300, 44.15400, "WARM SPRINGS CREEK HOT SPRINGS       167"
-115.32700, 43.82300, "WEATHERBY HOT SPRING                 113"
-115.03500, 46.46400, "WEIR CREEK HOT SPRINGS               117"
-117.04200, 44.30600, "WEISER WARM SPRINGS                   72"
-114.48600, 43.98200, "WEST PASS HOT SPRING                 124"
-114.95200, 43.04900, "WHITE ARROW HOT SPRING               145"
-116.23100, 44.67900, "WHITE LICKS HOT SPRING               140"
-113.36300, 44.61200, "WHITTAKER WARM SPRINGS                75"
-115.13000, 43.63700, "WILLOW CREEK HOT SPRING              131"
-111.69500, 43.02100, "WILSON LAKE WARM SPRING               86"
-115.04400, 43.33500, "WOLF HOT SPRING                      113"
-112.24600, 42.05600, "WOODRUFF HOT SPRING                   81"
-114.79800, 43.56300, "WORSWICK HOT SPRINGS                 180"
-112.16700, 43.11400, "YANDELL SPRINGS                       90"
-116.29100, 45.03900, "ZIMS RESORT HOT SPRINGS              144"
-73.20000, 42.73500, "SAND SPRING                           75"
-111.98200, 46.44800, "ALHAMBRA HOT SPRINGS                 138"
-112.90300, 46.10600, "ANACONDA HOT SPRINGS                  72"
-110.14200, 45.55300, "ANDERSON SPRINGS                      77"
-111.89200, 44.70400, "ANDERSONS PASTURE SPRINGS             82"
-112.69200, 45.42000, "APEX WARM SPRING                      77"
-112.55500, 46.61000, "AVON WARM SPRING                      79"
-110.66700, 45.03200, "BEAR CREEK SPRINGS                    72"
-113.32000, 46.71700, "BEARMOUTH WARM SPRING 1               68"
-113.30600, 46.71800, "BEARMOUTH WARM SPRING 2               68"
-112.45200, 45.39200, "BEAVERHEAD ROCK SPRING                81"
-111.56500, 46.35500, "BEDFORD HOT SPRINGS                   74"
-114.38200, 45.69800, "BLUE JOINT HOT SPRING 1               84"
-114.36500, 45.69700, "BLUE JOINT HOT SPRINGS 2              84"
-112.09400, 46.19800, "BOULDER HOT SPRINGS                  169"
-111.18600, 45.66000, "BOZEMAN HOT SPRINGS                  131"
-110.97600, 45.70800, "BRIDGER CANYON WARM SPRING            70"
-112.10800, 46.59600, "BROADWATER (HELENA) HOT SPRINGS      151"
-109.47100, 47.21700, "BROOKS WARM SPRING                    68"
-112.75100, 45.10500, "BROWNS SPRINGS                        75"
-114.66300, 47.60700, "CAMAS HOT SPRINGS                    113"
-110.57100, 45.60800, "CARTER BRIDGE WARM SPRINGS            82"
-110.69100, 45.33700, "CHICO HOT SPRINGS                    113"
-112.88600, 46.33400, "DEERLODGE PRISON RANCH SPRINGS        79"
-108.88300, 46.79500, "DURFEE CREEK SPRINGS                  70"
-113.10900, 45.45800, "ELKHORN HOT SPRINGS                  118"
-111.72600, 45.36700, "ENNIS HOT SPRINGS                    181"
-113.93800, 45.75000, "GALLOGLY SPRING                      100"
-112.77600, 46.60700, "GARRISON WARM SPRINGS                 77"
-114.64800, 47.45100, "GREEN SPRINGS                         79"
-112.81100, 46.04400, "GREGSON HOT SPRINGS                  158"
-110.25600, 45.75700, "HUNTERS HOT SPRINGS                  140"
-113.40300, 45.36800, "JARDINE HOT SPRING                   140"
-110.77400, 45.09000, "LADUKE (CORWIN) HOT SPRING           154"
-108.65600, 47.87600, "LANDUSKY SPRINGS                      70"
-108.39500, 47.97100, "LITTLE WARM SPRINGS                   73"
-108.44500, 47.99400, "LODGEPOLE (BIG WARM) SPRINGS          79"
-114.53300, 46.72800, "LOLO HOT SPRINGS  GRANITE SPRINGS    111"
-112.71400, 45.11100, "LOVELLS HOT SPRING                    72"
-112.84400, 45.02700, "MCMENOMEY RANCH SPRING                68"
-112.85500, 47.63200, "MEDICINE (SUN RIVER) SPRINGS          86"
-114.03800, 45.84100, "MEDICINE HOT SPRINGS                 117"
-112.47500, 45.46200, "NEW BILTMORE HOT SPRINGS             127"
-113.45200, 46.70400, "NIMROD SPRINGS                        70"
-111.68300, 45.57500, "NORRIS HOT SPRINGS                   127"
-112.23300, 45.89600, "PIPESTONE HOT SPRINGS                135"
-111.89900, 45.59000, "POTOSI HOT SPRINGS                   122"
-111.90000, 45.60200, "POTOSI WARM SPRINGS                  124"
-112.15300, 45.17100, "PULLER HOT SPRINGS                   111"
-114.78900, 47.33000, "QUINNS HOT SPRINGS                   109"
-112.12600, 45.79200, "RENOVA HOT SPRINGS                   122"
-112.29500, 45.68500, "SILVER STAR HOT SPRINGS              163"
-114.00400, 46.10600, "SLEEPING CHILD HOT SPRINGS           122"
-111.64900, 44.76900, "SLOAN COW CAMP SPRING                 86"
-111.87800, 44.70100, "STAUDENMEYER SPRINGS                  82"
-108.59800, 47.84300, "THE (LANDUSKY) PLUNGE                 77"
-112.13500, 45.23500, "TRUDAU WARM SPRINGS                   73"
-111.95300, 45.03700, "VIGILANTE SPRING                      75"
-112.79400, 46.17800, "WARM SPRINGS (STATE HOSPITAL)        172"
-111.64900, 44.78500, "WEST FORK SWIMMING HOLE               79"
-110.90300, 46.54700, "WHITE SULPHUR SPRINGS                136"
-111.61300, 44.98400, "WOLF CREEK HOT SPRINGS               154"
-82.82600, 35.89700, "HOT SPRINGS                          108"
-108.80000, 33.83100, "(UPPER) FRISCO HOT SPRING             98"
-107.13300, 35.06000, "ALAMOS SPRING                         72"
-108.35800, 32.88400, "ALLEN SPRINGS                         78"
-108.12800, 32.64400, "APACHE TEJO WARM SPRING               97"
-108.50100, 33.89800, "ARAGON SPRINGS                        70"
-108.40800, 32.82100, "ASH SPRING                            72"
-106.45400, 34.99500, "CLEAR WATER SPRING                    69"
-106.93900, 34.04900, "COOK SPRING                           70"
-107.27600, 32.79500, "DERRY WARM SPRINGS                    92"
-107.08500, 34.90300, "EL OJO ESCONDIDO                      73"
-107.99400, 32.55400, "FAYWOOD HOT SPRINGS                  129"
-109.02500, 33.70800, "FRIEBORN CANYON SPRING                92"
-108.20900, 33.19900, "GILA HOT SPRINGS                     151"
-109.04700, 32.83000, "GOAT CAMP SPRING                      69"
-108.88000, 33.23700, "HOT SPRINGS                            H"
-104.48900, 32.45500, "INDIAN BIG SPRING                     79"
-106.75300, 35.59200, "INDIAN SPRINGS                       123"
-106.69000, 35.77200, "JEMEZ SPRINGS                        169"
-108.02700, 32.56200, "KENNECOTT WARM SPRINGS                 W"
-107.09100, 34.83300, "LAGUNA PUEBLO SEEPS                   82"
-107.08800, 34.85400, "LAGUNA PUEBLO SPRINGS                 80"
-108.18000, 33.19200, "LYONS HUNTING LODGE HOT SPRINGS      126"
-105.72200, 36.50800, "MANBY HOT SPRINGS                    100"
-108.51200, 32.84300, "MANGAS SPRINGS                        81"
-106.62700, 35.82000, "MCCAULEY HOT SPRINGS                  99"
-107.83600, 32.74800, "MIMBRES HOT SPRINGS                  136"
-105.29000, 35.65300, "MONTEZUMA  HOT SPRINGS               138"
-104.41100, 32.24800, "MOSLEY SPRING                         68"
-106.98000, 34.11600, "OJITOS SPRINGS                        68"
-107.59300, 33.57200, "OJO CALIENTE                          83"
-106.05300, 36.30500, "OJO CALIENTE (ARSENIC SPRING)        111"
-106.77700, 34.03200, "OJO DE LAS CANAS                      79"
-106.86000, 35.60100, "PHILLIPS SPRINGS                      70"
-105.60600, 36.32400, "PONCE DE LEON SPRINGS                 93"
-106.92600, 32.50100, "RADIUM SPRINGS                       127"
-108.95100, 34.91200, "RAINBOW SPRING                        71"
-106.64600, 35.93800, "SAN ANTONIO HOT SPRING               129"
-106.56000, 35.97200, "SAN ANTONIO WARM SPRING              101"
-108.88000, 33.24400, "SAN FRANCISCO HOT SPRINGS            120"
-106.85400, 35.54000, "SAN YSIDRO HOT SPRINGS                85"
-106.82700, 35.54800, "SAN YSIDRO WARM SPRINGS               68"
-106.94000, 34.03800, "SOCORRO SPRING  SEDILLO SPRING        93"
-106.68500, 35.79300, "SODA DAM HOT SPRINGS                 117"
-107.19000, 32.60600, "SOUSE SPRINGS                         88"
-106.62900, 35.84900, "SPENCE HOT SPRINGS                   100"
-107.12900, 34.69800, "SPRING                                71"
-108.23500, 33.23300, "SPRING (HOT)                         149"
-108.20900, 33.16200, "SPRING (HOT)                         111"
-107.09100, 34.84700, "SPRING (SALT)                         76"
-107.08500, 34.76900, "SPRING (SALT)                         78"
-107.09100, 34.80800, "SPRING (SALT)                         86"
-108.25000, 33.27400, "SPRING MFG FOUR                       93"
-108.26200, 33.28500, "SPRING MFG ONE                        88"
-108.28200, 33.29300, "SPRING MFG TWO  SPRING MFG THREE      99"
-106.05900, 36.36800, "STATUE SPRING                         83"
-106.61500, 35.90800, "SULPHUR SPRINGS                      189"
-108.32400, 33.30600, "THE MEADOWS WARM SPRING               91"
-107.25400, 33.13500, "TRUTH OR CONSEQUENCES                113"
-108.48300, 33.10800, "TURKEY CREEK HOT SPRING              165"
-107.56300, 33.27900, "WARM SPRINGS                          87"
-106.88800, 35.64600, "WARM SPRINGS                         129"
-107.58000, 32.95300, "null                                  94"
-109.03500, 32.89900, "null                                  69"
-107.81100, 32.69300, "null                                  72"
-108.63100, 32.97500, "null                                  77"
-105.71300, 36.52800, "null                                 106"
-106.47100, 35.30800, "null                                  68"
-108.31900, 34.15800, "null                                  72"
-107.09500, 34.32600, "null                                  72"
-107.09100, 34.79100, "null                                  80"
-107.38800, 34.81500, "null                                  68"
-107.09200, 34.88300, "null                                  73"
-107.14300, 34.91600, "null                                  68"
-106.88300, 34.26400, "null                                  70"
-108.22800, 33.21200, "null                                 149"
-108.23300, 33.25800, "null                                  94"
-106.97100, 33.81300, "null                                  70"
-118.85600, 39.56500, "(SODA LAKE AREA)                     210"
-115.86700, 38.36500, "ABEL SPRING                          115"
-117.33700, 37.82500, "ALKALI HOT SPRING                    140"
-119.50900, 39.94400, "ANAHO ISLAND SPRING                  120"
-115.42500, 36.94200, "ASH CREEK SPRING                      72"
-115.19200, 37.46300, "ASH SPRINGS                           97"
-116.41100, 36.42600, "ASH TREE SPRING                       75"
-118.70900, 41.92100, "BALTAZOR HOT SPRING                  181"
-116.36000, 39.55800, "BARTINE HOT SPRINGS                  108"
-116.74400, 36.91800, "BEATTY MUNICIPAL SPRING               88"
-114.52800, 37.78300, "BENNETT SPRINGS                       70"
-116.58800, 40.56700, "BEOWAWE HOT SPRINGS (THE GEYSERS)    208"
-116.27400, 36.37500, "BIG (ASH MEADOWS) SPRING              83"
-117.04900, 38.95400, "BIG BLUE (A) SPRING                   90"
-115.63500, 39.07200, "BIG BLUE SPRING                        W"
-115.70000, 38.95000, "BIG WARM SPRING                       93"
-119.00700, 40.97200, "BLACK ROCK HOT SPRING                136"
-115.52800, 38.56300, "BLUE EAGLE SPRINGS                    84"
-114.43300, 36.38900, "BLUE POINT SPRING                     82"
-118.80500, 41.92500, "BOG HOT SPRINGS                      131"
-119.37900, 40.26200, "BOILING SPRINGS                      187"
-116.27100, 36.36300, "BOLE SPRING                           72"
-118.57800, 39.34200, "BORAX SPRING                         180"
-119.84000, 39.28600, "BOWERS MANSION HOT SPRING            133"
-119.01100, 39.78700, "BRADYS HOT SPRINGS                   209"
-117.30600, 40.82900, "BROOKS SPRING                         93"
-115.88800, 36.03300, "BROWNS SPRING                         75"
-116.06800, 40.22000, "BRUFFEYS HOT SPRINGS                 149"
-117.41500, 40.41800, "BUFFALO SPRINGS                      162"
-117.32700, 40.36800, "BUFFALO VALLEY HOT SPRINGS           174"
-116.72300, 36.96800, "BURRELL HOT SPRING                   102"
-119.11300, 40.77000, "BUTTE SPRINGS (TREGO HOT SPRINGS)    187"
-115.01100, 38.44000, "BUTTERFIELD SPRINGS                   75"
-116.30300, 36.42800, "BUTTON SPRINGS                        93"
-119.27500, 41.02200, "CAINE SPRING                          73"
-114.51000, 37.62100, "CALIENTE HOT SPRINGS                 118"
-114.91500, 39.54700, "CAMPBELL RANCH SPRINGS                76"
-118.93700, 41.25800, "CANE SPRINGS                          74"
-116.04900, 40.29000, "CARLOTTI RANCH SPRINGS               102"
-119.75200, 39.19300, "CARSON HOT SPRINGS                   120"
-116.27400, 37.75100, "CEDAR SPRING                          77"
-117.04200, 38.99200, "CHARNOCK (BIG BLUE) SPRINGS           80"
-114.89300, 39.88300, "CHERRY CREEK HOT SPRINGS             144"
-116.79000, 40.18700, "CHILLIS HOT SPRING                   102"
-115.79200, 38.46400, "CHIMNEY WARM SPRING                  160"
-114.64700, 40.08700, "COLLAR AND ELBOW SPRING               93"
-115.86600, 38.38800, "COYOTE HOLE SPRING                   113"
-119.17200, 40.76300, "COYOTE SPRING                         72"
-116.50700, 40.41700, "CRESCENT VALLEY HOT SPRINGS          138"
-116.51700, 40.40400, "CRESCENT VALLEY HOT SPRINGS          138"
-116.32200, 36.42100, "CRYSTAL POOL                          91"
-115.23300, 37.53200, "CRYSTAL SPRINGS                       90"
-117.18300, 38.82200, "DARROUGHS HOT SPRINGS                203"
-116.31300, 36.40800, "DAVIS RANCH SPRING                    70"
-116.30200, 36.40200, "DAVIS RANCH SPRINGS                   81"
-114.32100, 37.86000, "DELMUES SPRINGS                       70"
-116.29100, 36.42500, "DEVILS HOLE                           92"
-116.66600, 39.03100, "DIANAS PUNCH BOWL                    138"
-119.73800, 39.42000, "DIMONTE SPRING                       127"
-118.01700, 39.86600, "DIXIE COMSTOCK MINE                    H"
-118.06700, 39.79700, "DIXIE HOT SPRINGS                    162"
-119.74300, 39.44200, "DOUBLE DIAMOND SPRING                 84"
-119.02800, 41.05100, "DOUBLE HOT SPRINGS                   178"
-118.68900, 38.96500, "DOUBLE SPRING                          W"
-119.65000, 38.79600, "DOUD SPRINGS                          70"
-118.56400, 41.56700, "DYKE HOT SPRINGS                     158"
-119.03900, 39.73300, "EAGLE SALT WORKS SPRING                H"
-115.77800, 40.81300, "ELKO HOT SPRING                      190"
-116.15300, 40.68400, "ELLISON RANCH WARM SPRING              W"
-115.04700, 38.62200, "EMIGRANT SPRINGS                      70"
-116.34200, 36.49100, "FAIRBANKS SPRING  SODA SPRING         81"
-118.03900, 37.99700, "FISH SPRING                           75"
-116.39700, 38.81000, "FISH SPRINGS                           W"
-119.88400, 40.10300, "FISH SPRINGS                          73"
-118.27900, 41.76300, "FIVEMILE SPRING                       81"
-115.02200, 38.42300, "FLAG SPRINGS                          75"
-114.22700, 37.89600, "FLATNOSE RANCH SPRING                 77"
-119.32800, 40.85700, "FLY RANCH (WARDS) HOT SPRINGS        180"
-116.03500, 40.07900, "FLYNN RANCH SPRINGS                   78"
-117.91700, 39.95400, "FUMAROLES                            204"
-114.18700, 41.36900, "GAMBLE SPRING                         69"
-114.11700, 41.88400, "GAMBLES HOLE                         104"
-117.99300, 37.97900, "GAP SPRING                            73"
-114.62800, 38.67100, "GEYSER RANCH SPRINGS                  70"
-114.63300, 38.65400, "GEYSER RANCH SPRINGS                  70"
-114.63200, 38.64500, "GEYSER RANCH SPRINGS                  70"
-115.61200, 39.81400, "GIOCOECHA WARM SPRINGS                76"
-117.49400, 40.96100, "GOLCONDA HOT SPRING (NORTH)          165"
-117.48800, 40.95400, "GOLCONDA HOT SPRING (SOUTH)          151"
-119.36500, 40.66200, "GREAT BOILING SPRING (GERLACH)       208"
-114.27200, 38.29200, "HAMMOND RANCH SPRING                  84"
-116.72100, 36.97500, "HICKS HOT SPRINGS                    109"
-115.21500, 37.59800, "HIKO SPRING                           90"
-119.81500, 39.05900, "HOBO HOT SPRINGS                     114"
-117.49600, 40.17800, "HOME STATION RANCH HOT SPRING        135"
-116.46300, 40.60300, "HORSESHOE RANCH SPRINGS              136"
-116.36500, 38.52100, "HOT CREEK RANCH HOT SPRING           180"
-115.15300, 38.38300, "HOT CREEK RANCH SPRING                90"
-115.18100, 41.57600, "HOT CREEK SPRINGS                    151"
-116.27700, 38.43700, "HOT CREEK VALLEY SPRING              142"
-115.77700, 40.81900, "HOT HOLE                             133"
-116.73300, 41.14800, "HOT LAKE                               H"
-117.10800, 40.92200, "HOT POT (BLOSSOM HOT SPRINGS)        136"
-119.40200, 40.38900, "HOT SEEPS (SAN EMIDIO DESERT)        203"
-114.74300, 35.96400, "HOT SPRING                            82"
-115.27800, 41.17500, "HOT SPRING                             H"
-115.28700, 41.19000, "HOT SPRING                            97"
-114.99400, 41.14500, "HOT SPRING                             H"
-114.37600, 41.98000, "HOT SPRING                            86"
-116.43300, 40.31600, "HOT SPRING                           186"
-116.66300, 39.04100, "HOT SPRING                           124"
-119.17500, 38.85900, "HOT SPRING                             H"
-114.73100, 35.94400, "HOT SPRING                            78"
-114.74800, 35.98200, "HOT SPRINGS                           86"
-116.68100, 39.94100, "HOT SPRINGS                          180"
-117.49200, 40.76100, "HOT SPRINGS                          185"
-117.10700, 40.19100, "HOT SPRINGS                          127"
-117.57800, 41.10800, "HOT SPRINGS                          158"
-115.30500, 41.26100, "HOT SPRINGS                          126"
-114.99100, 41.18300, "HOT SPRINGS                          142"
-117.10300, 40.19800, "HOT SPRINGS                          127"
-116.05800, 40.32500, "HOT SPRINGS                           79"
-116.83800, 40.67300, "HOT SPRINGS                          122"
-117.55200, 39.30800, "HOT SPRINGS                          115"
-117.54900, 39.31600, "HOT SPRINGS                          198"
-116.13300, 40.69900, "HOT SPRINGS (CARLIN)                 174"
-117.10200, 40.18300, "HOT SPRINGS RANCH                    129"
-117.10000, 41.05000, "HOT SPRINGS RANCH SPRINGS             79"
-116.04000, 40.76500, "HOT SULPHUR SPRINGS                  147"
-116.15000, 41.46800, "HOT SULPHUR SPRINGS (TUSCARORA)      194"
-118.50500, 41.72100, "HOWARD HOT SPRING                    135"
-119.72200, 39.45700, "HUFFAKER SPRINGS                      81"
-117.71800, 40.00300, "HYDER HOT SPRINGS                    176"
-115.67100, 36.56500, "INDIAN SPRINGS                        78"
-117.30300, 38.45800, "INDIAN SPRINGS                         W"
-116.89500, 40.92900, "IZZENHOOD RANCH SPRINGS               88"
-116.27800, 36.39000, "JACK RABBIT SPRING                    82"
-114.51500, 40.96700, "JOHNSON RANCH SPRINGS                 72"
-115.53100, 38.55400, "KATE SPRING                           73"
-116.34700, 39.40400, "KLOBE (BARTHOLOMAE) HOT SPRING       156"
-117.88300, 40.40800, "KYLE HOT SPRINGS                     171"
-115.14100, 36.20500, "KYLE SPRING                           75"
-114.86600, 39.28300, "LACKAWANNA HOT SPRINGS                95"
-115.19100, 36.17300, "LAS VEGAS SPRINGS                     79"
-119.90700, 39.51200, "LAWTON HOT SPRINGS                   120"
-117.64800, 40.60400, "LEACH HOT SPRINGS                    207"
-118.72300, 39.20800, "LEE HOT SPRINGS  ALLEN SPRINGS       190"
-116.64900, 39.89300, "LITTLE HOT SPRINGS                     H"
-115.69500, 38.93700, "LITTLE WARM SPRING                    90"
-115.76700, 38.55600, "LOCKES BIG SPRING  HAY CORRAL SPR    100"
-116.32500, 36.46800, "LONGSTREET SPRING                     82"
-117.60400, 40.03500, "LOWER RANCH HOT SPRINGS              104"
-114.69200, 39.79200, "LOWER SHELLBOURNE SPRING              77"
-118.71700, 41.05200, "MACFARLANE HOT SPRING                170"
-115.89300, 36.14700, "MANSE RANCH SPRING                    75"
-117.60400, 40.08000, "MCCOY SPRINGS                        120"
-114.77900, 39.41300, "MCGILL SPRING                         84"
-117.13600, 39.02800, "MCLEOD RANCH HOT SPRING              180"
-114.73500, 41.78800, "MINERAL HOT SPRING                   140"
-119.80400, 39.48400, "MOANA SPRINGS                        199"
-114.71400, 36.71000, "MOAPA WARM SPRINGS                    90"
-114.80700, 39.66500, "MONTE NEVA HOT SPRINGS               176"
-115.18100, 38.35200, "MOON RIVER SPRING                     92"
-115.13800, 38.59400, "MOORMAN SPRING                       100"
-117.07000, 40.31300, "MOUND SPRINGS                        109"
-119.37800, 40.65300, "MUD SPRINGS                          184"
-114.71600, 36.72200, "MUDDY SPRING                          90"
-119.11600, 41.35400, "MUSTANG SPRINGS                       73"
-119.41000, 38.89900, "NEVADA (HINDS) HOT SPRINGS           144"
-119.73700, 39.15900, "NEVADA STATE PRISON SPRING            75"
-114.07100, 41.92900, "NILE SPRING                          109"
-118.26100, 41.70600, "NINEMILE SPRINGS                      79"
-116.40500, 38.53100, "OLD DUGAN RANCH HOT SPRINGS          102"
-115.98300, 36.20700, "PAHRUMP (BENNETTS) SPRING             77"
-118.86100, 41.80900, "PAINTED HILLS MINE                   131"
-114.38000, 37.80700, "PANACA SPRING                         88"
-116.31900, 36.46400, "PARENT SPRINGS                        93"
-119.11000, 39.59700, "PATUA HOT SPRINGS (FERNLEY)          187"
-117.48000, 37.82200, "PEARL HOT SPRINGS                     97"
-116.05800, 41.38500, "PETAINI SPRINGS                        W"
-117.42700, 39.55900, "PETERSONS MILL HOT SPRING              H"
-118.78800, 41.36300, "PINTO HOT SPRINGS                    199"
-116.27400, 36.40200, "POINT OF ROCKS SPRINGS  KING SPRING   91"
-116.63900, 39.08000, "POTTS RANCH HOT SPRINGS              113"
-115.08200, 38.92700, "PRESTON SPRINGS                       70"
-119.50200, 39.98000, "PYRAMID ISLAND HOT SPRING           null"
-116.15700, 40.59200, "RAINE RANCH SPRINGS                    W"
-114.75100, 40.95200, "RALPHS WARM SPRINGS                   86"
-116.38900, 37.99600, "REVEILLE MILL SPRING                  84"
-115.92100, 41.77500, "RIZZI RANCH HOT SPRING               106"
-114.44300, 36.37800, "ROGERS SPRING                         82"
-116.32600, 36.47900, "ROGERS SPRING                         82"
-117.93700, 40.87300, "ROSE CREEK SPRING                     83"
-115.62800, 41.87700, "ROWLAND HOT SPRINGS                  104"
-114.69200, 41.86700, "SAN JACINTO RANCH SPRING             148"
-115.75300, 37.74100, "SAND SPRING                           86"
-118.17100, 37.90600, "SAND SPRING                           74"
-118.42000, 39.28100, "SAND SPRINGS                           H"
-119.74200, 39.05800, "SARATOGA HOT SPRING                  122"
-116.82900, 38.25500, "SAULSBURY WARM SPRING                 86"
-114.75600, 39.45800, "SCHOOLHOUSE SPRING                    84"
-116.30800, 36.43300, "SCRUGGS SPRINGS                       86"
-114.44600, 36.56700, "SEEP                                  70"
-117.21100, 37.01600, "SEEP                                  77"
-119.78500, 41.73200, "SEEPS (HILLS WARM SPRING)             83"
-117.85400, 39.99500, "SENATOR FUMAROLES                      B"
-116.07300, 39.94300, "SHIPLEY HOT SPRING                   106"
-117.63200, 37.76100, "SILVERPEAK HOT SPRING                118"
-116.04400, 39.98800, "SIRI RANCH SPRING                     95"
-115.40900, 40.24900, "SMITH RANCH SPRINGS                  149"
-118.87600, 39.52600, "SODA LAKE                             86"
-118.10300, 38.34300, "SODA SPRINGS                         100"
-117.72500, 40.08800, "SOU (SEVEN DEVILS) HOT SPRINGS       185"
-116.71700, 38.82300, "SOUTH MOSQUITO CREEK RANCH SPRINGS    95"
-116.85800, 39.32800, "SPENCER HOT SPRINGS                  162"
-114.74200, 36.00200, "SPRING                               145"
-116.29200, 36.41400, "SPRING                                79"
-118.57000, 41.53000, "SPRING                               104"
-114.99000, 41.06600, "SPRING                                 W"
-117.64600, 40.02500, "SPRING                                83"
-117.76300, 40.99200, "SPRING                                93"
-116.80500, 40.18700, "SPRING                                72"
-119.71900, 39.85300, "SPRING                                73"
-114.66700, 39.91700, "SPRING                                83"
-119.38800, 38.95000, "SPRING                                 W"
-116.68300, 38.02700, "SPRING                                86"
-119.16500, 41.39800, "SPRING                                84"
-116.69100, 37.07400, "SPRING                                72"
-116.26300, 36.36300, "SPRING                                72"
-116.38300, 36.40400, "SPRING                                90"
-116.20600, 36.43700, "SPRING                                82"
-116.31300, 36.45000, "SPRING                                81"
-116.72900, 36.94200, "SPRING                                88"
-116.70600, 36.99900, "SPRING                                72"
-115.62300, 36.56500, "SPRING                                79"
-114.16500, 41.38600, "SPRING (HOT)                         111"
-119.22100, 41.36500, "SPRING (HOT)                         122"
-119.21600, 41.35300, "SPRING (HOT)                         127"
-114.32900, 36.48600, "SPRINGS                               77"
-116.71900, 37.02900, "SPRINGS                               75"
-116.88400, 40.12700, "SPRINGS                               72"
-119.16800, 41.33800, "SPRINGS                               79"
-119.20600, 41.32200, "SPRINGS                               75"
-119.53800, 40.83000, "SPRINGS                               84"
-119.78600, 39.06800, "SPRINGS                               90"
-119.18200, 41.37800, "SPRINGS (HOT)                        136"
-119.19200, 41.33900, "SPRINGS (HOT)                        127"
-119.18800, 41.35700, "SPRINGS (HOT)                        133"
-119.74300, 39.38800, "STEAMBOAT SPRINGS                    205"
-119.74000, 39.38000, "STEAMBOAT SPRINGS                    205"
-115.86200, 38.39800, "STORM SPRING                          99"
-115.28500, 40.58500, "SULPHUR HOT SPRINGS                  205"
-116.06900, 39.83200, "SULPHUR SPRING                        74"
-117.34900, 40.86400, "SULPHUR SPRING                         H"
-117.38800, 41.42100, "THE HOT SPRINGS                      135"
-119.67300, 40.14600, "THE NEEDLE ROCKS HOT SPRING          208"
-119.68700, 40.14100, "THE NEEDLE ROCKS HOT SPRINGS         208"
-115.86800, 39.90100, "THOMPSON RANCH SPRING                 68"
-114.98600, 41.15900, "THREEMILE SPRING  SULPHUR HOT SPR    122"
-115.52200, 38.57400, "TOM SPRING                            72"
-114.94700, 41.24300, "TWELVEMILE SPRING                    102"
-119.86200, 41.59100, "TWIN (VYA) SPRING                     71"
-114.65300, 39.80000, "UPPER SHELLBOURNE SPRING              74"
-116.46500, 38.53200, "UPPER WARM SPRING                     95"
-116.43500, 38.69800, "UPPER WARM SPRING  WARM SPRING       106"
-119.18300, 39.16100, "WABUSKA HOT SPRINGS                  201"
-119.83300, 38.98100, "WALLEYS HOT SPRINGS                  160"
-116.58800, 39.90400, "WALTI HOT SPRINGS                    162"
-114.63800, 38.63300, "WAMBOLT SPRINGS                       70"
-116.66200, 38.33900, "WARM SPRING                            W"
-115.36300, 40.78200, "WARM SPRING                            W"
-116.38800, 39.52900, "WARM SPRING                            W"
-116.37300, 38.18800, "WARM SPRINGS                         145"
-115.03500, 40.75100, "WARM SPRINGS                           W"
-114.13300, 41.35500, "WARM SPRINGS                           W"
-115.38900, 41.06400, "WARM SPRINGS                           W"
-118.84100, 41.75300, "WARM SPRINGS                         112"
-119.79100, 41.74600, "WARM SPRINGS                          73"
-118.80800, 41.93400, "WARM SPRINGS                           W"
-114.57400, 41.97100, "WARM SPRINGS                          95"
-118.19800, 38.92200, "WEDELL HOT SPRINGS                   144"
-118.80900, 41.35700, "WEST PINTO HOT SPRING                198"
-116.68900, 40.74600, "WHITE HOUSE SPRING                     W"
-115.47900, 36.17400, "WHITE ROCK SPRING                     78"
-115.77500, 41.64700, "WILD HORSE HOT SPRINGS               129"
-115.23000, 38.95200, "WILLIAMS HOT SPRING                  127"
-119.17400, 38.76800, "WILSON HOT SPRING                    183"
-114.67500, 41.41200, "WINE CUP RANCH SPRINGS               138"
-119.75800, 39.42100, "ZOLEZZI SPRING                       102"
-117.98400, 37.99300, "null                                  81"
-118.96800, 38.48900, "null                                 110"
-119.00200, 40.94800, "null                                 194"
-118.52300, 41.72200, "null                                 163"
-119.19700, 41.39700, "null                                 114"
-119.01500, 41.02200, "null                                 161"
-119.01700, 41.02900, "null                                 114"
-119.00200, 41.11200, "null                                 151"
-119.13500, 41.13700, "null                                  80"
-119.02200, 41.14700, "null                                 153"
-119.95700, 41.17500, "null                                   H"
-119.19700, 41.33200, "null                                 102"
-119.22300, 41.33400, "null                                  72"
-119.18700, 41.38300, "null                                 130"
-119.00800, 41.00300, "null                                 204"
-119.01000, 41.01300, "null                                 172"
-118.42900, 41.49600, "null                                  70"
-117.31800, 41.02900, "null                                  70"
-119.36400, 40.67400, "null                                 194"
-117.21900, 40.57800, "null                                 162"
-115.01200, 40.97300, "null                                   W"
-116.88000, 39.24200, "null                                   H"
-116.73800, 38.86000, "null                                   H"
-73.37000, 42.48000, "LEBANON SPRING                        72"
-118.28800, 43.86000, "ALTNOW HOT SPRING                      W"
-118.53300, 42.54400, "ALVORD HOT SPRINGS                   174"
-122.16700, 42.87300, "ANNIE SPRING                          77"
-119.69300, 42.50100, "ANTELOPE HOT SPRINGS                 104"
-122.00900, 45.02100, "AUSTIN HOT SPRINGS                   186"
-122.17300, 44.93600, "BAGBY HOT SPRINGS                    136"
-119.07500, 43.47700, "BAKER SPRING                          70"
-120.34500, 42.15600, "BARRY RANCH HOT SPRINGS              190"
-119.29300, 43.27200, "BASQUE SPRING                         74"
-120.33000, 42.38000, "BEAN HOT SPRING                       69"
-122.04900, 44.19300, "BELKNAP SPRINGS                      160"
-118.13600, 43.94400, "BEULAH HOT SPRINGS                   140"
-122.05800, 44.24100, "BIGELOW HOT SPRINGS                  142"
-118.23300, 45.74100, "BINGHAM SPRINGS                       93"
-118.57400, 44.35400, "BLUE MOUNTAIN HOT SPRINGS            136"
-118.60200, 42.32700, "BORAX LAKE (HOT LAKE)                 97"
-121.97500, 44.78200, "BREITENBUSH HOT SPRINGS              198"
-119.42700, 44.07300, "BRISBOIS RANCH SPRINGS                72"
-120.72500, 42.99800, "BUCKHORN CREEK SPRINGS                68"
-117.44900, 44.03300, "BULLY CREEK SPRING                    99"
-117.06100, 42.97700, "CANTERS HOT SPRING                   120"
-116.87300, 45.89100, "COOK CREEK HOT SPRING                 97"
-122.23300, 44.08300, "COUGAR RESERVOIR HOT SPRINGS         111"
-118.63800, 43.44100, "CRANE HOT SPRINGS                    172"
-119.88100, 42.22600, "CRUMP GEYSER (CRUMP SPRING)          172"
-121.62700, 42.16100, "CRYSTAL SPRING                        78"
-117.17800, 43.73900, "DEER BUTTE HOT SPRING                115"
-119.31100, 43.28100, "DOUBLE O BARNYARD SPRING              72"
-119.34000, 43.27600, "DOUBLE O SPRING                       74"
-119.01500, 43.26400, "DUNN SPRING                           70"
-121.96300, 42.43100, "EAGLE POINT SPRING                    95"
-121.20900, 43.71900, "EAST LAKE HOT SPRINGS                144"
-119.77600, 42.29700, "FISHER HOT SPRINGS                   154"
-118.04400, 44.97500, "FISHER HOT SPRINGS                    99"
-118.89800, 42.88900, "FIVEMILE SPRING (HOGHOUSE HOT SPRS)   80"
-118.38300, 42.18800, "FLAGSTAFF BUTTE HOT SPRING           126"
-122.09800, 44.15300, "FOLEY SPRINGS                        178"
-119.08100, 43.52900, "GOODMAN SPRING                        72"
-119.92700, 42.07500, "HALLINAN SPRING                      113"
-121.80100, 42.17800, "HARDBOARD SPRING                      70"
-118.73800, 45.12900, "HIDAWAY SPRINGS                      100"
-117.95800, 45.24400, "HOT LAKE SPRINGS                     176"
-117.38300, 43.30200, "HOT SPRING                           106"
-118.60200, 42.33800, "HOT SPRINGS                          207"
-121.82800, 42.17600, "HOWARD HOLIDAY                        77"
-119.25800, 43.25200, "HUGHET SPRING                         68"
-120.36800, 42.22100, "HUNTERS HOT SPRINGS                  205"
-122.74200, 42.22100, "JACKSON HOT SPRINGS                   95"
-117.45500, 44.20800, "JAMIESON HOT SPRINGS                   H"
-118.95600, 44.28000, "JOAQUIN MILLER HOT SPRINGS           104"
-119.27600, 43.26500, "JOHNSON SPRING                        72"
-117.95800, 43.79500, "JONESBORO WARM SPRING                112"
-118.06700, 43.75800, "JUNTURA WARM SPRING 1                 77"
-118.09200, 43.75700, "JUNTURA WARM SPRING 2                 95"
-121.20100, 44.86200, "KAHNEETA HOT SPRINGS                 126"
-122.37200, 43.68900, "KITSON HOT SPRINGS                   109"
-117.88500, 45.01300, "KROPP HOT SPRING                     109"
-118.65900, 45.15100, "LEHMAN SPRINGS                       142"
-120.34400, 42.16200, "LEITHEAD HOT SPRING                  162"
-118.73800, 44.37400, "LIMEKILN HOT SPRING                   70"
-120.64200, 42.93300, "LOST CABIN SPRING                     68"
-118.20200, 43.46900, "LUCE HOT SPRINGS                     145"
-122.28800, 43.70800, "MCCREDIE SPRINGS                     163"
-117.62500, 45.01800, "MEDICAL HOT SPRINGS                  140"
-118.34400, 42.67600, "MICKEY SPRINGS                       187"
-119.08100, 43.54000, "MILLPOND HOT SPRING                   79"
-117.15600, 43.76300, "MITCHELL BUTTE HOT SPRING            144"
-119.87500, 42.30700, "MOSS RANCH SPRING                     72"
-119.86700, 42.28700, "MOSS RANCH SPRINGS                    83"
-121.69700, 45.37200, "MOUNT HOOD FUMAROLES                 194"
-119.10500, 44.45100, "MOUNT VERNON HOT SPRINGS             121"
-117.46000, 44.02300, "NEAL HOT SPRINGS                     189"
-117.41700, 44.53800, "NELSON SPRING                         80"
-121.61500, 42.17400, "OLENE GAP HOT SPRINGS                165"
-121.28700, 42.11600, "OREGON HOT SPRINGS (BIG HOT SPRING)  142"
-120.79800, 42.93000, "PARDON WARM SPRING                    76"
-121.25200, 43.73200, "PAULINA SPRINGS                       70"
-117.93900, 44.92700, "RADIUM HOT SPRINGS                   135"
-119.14100, 44.89200, "RITTER HOT SPRINGS                   106"
-119.09100, 43.50100, "ROADLAND SPRING                       72"
-117.81100, 44.77900, "SAM O SPRING                          80"
-117.55000, 42.75600, "SCOTT SPRING                          68"
-118.47200, 43.79300, "SITZ WARM SPRING                       W"
-117.20300, 43.72700, "SNIVELY HOT SPRING                   170"
-117.19000, 43.70300, "SOUTH BLACK WILLOW SPRING             71"
-117.76500, 44.81300, "SPRING (HOT)                           W"
-117.59600, 43.89300, "SPRINGS                                W"
-121.22800, 44.86700, "SPRINGS                              125"
-118.30800, 43.39500, "SPRINGS (HOT)                        106"
-120.64600, 42.72500, "SUMMER LAKE HOT SPRING               109"
-121.73100, 45.29500, "SWIM WARM SPRINGS                     79"
-117.90500, 42.68800, "TUDORS SPRING                         68"
-122.36700, 43.29400, "UMPQUA HOT SPRINGS                   117"
-117.91200, 45.20600, "UNION STATION HOT SPRINGS              H"
-117.23300, 43.98200, "VALE HOT SPRINGS                     163"
-122.30900, 43.80800, "WALL CREEK WARM SPRINGS              106"
-118.45500, 45.06100, "WARM MINERAL SPRING                   83"
-120.92400, 42.04000, "WARM SPRING                           92"
-118.04700, 43.77600, "WARM SPRING                            W"
-117.80600, 45.29500, "WARM SPRING                           85"
-118.89900, 42.81500, "WARM SPRINGS                          89"
-119.63400, 43.95000, "WARM SPRINGS                          84"
-119.87700, 42.21900, "WARNER VALLEY RANCH                  198"
-119.64700, 44.00200, "WEBERG HOT SPRING                    115"
-119.70300, 45.63100, "WELL SPRING                           80"
-120.32700, 42.32500, "WHITE ROCK RANCH HOT SPRING           71"
-121.21900, 42.13300, "WILKERSONS HOT SPRING                 76"
-117.18200, 42.53300, "null                                  95"
-117.50100, 43.89300, "null                                 158"
-117.50200, 43.21500, "null                                   H"
-118.54400, 43.85800, "null                                 165"
-118.25100, 43.64600, "null                                 144"
-117.97300, 45.50100, "null                                   W"
-119.05800, 43.18500, "null                                 154"
-119.12800, 43.20000, "null                                 108"
-119.05800, 43.21000, "null                                  92"
-119.13700, 43.21300, "null                                 104"
-119.06200, 43.23800, "null                                  70"
-119.42800, 43.33800, "null                                  68"
-118.73900, 43.66300, "null                                  72"
-117.69700, 43.07300, "null                                   H"
-117.32600, 43.58900, "null                                   H"
-118.31200, 42.25300, "null                                 100"
-118.86300, 42.83700, "null                                  83"
-118.70300, 42.25400, "null                                  90"
-117.76000, 42.07900, "null                                 126"
-103.50800, 43.45200, "HOT BROOK SPRINGS                     75"
-103.48100, 43.44200, "HOT SPRINGS                           87"
-104.56200, 30.21000, "CAPOTE SPRINGS                        99"
-102.99200, 29.18200, "HOT SPRINGS                          106"
-105.31500, 30.82300, "INDIAN HOT SPRINGS                   117"
-104.60200, 30.13300, "NIXON SPRING                          90"
-105.34000, 30.86100, "RED BULL SPRING                       99"
-102.95300, 29.17800, "RIO GRANDE VILLAGE SPRING             97"
-104.59800, 30.03800, "RUIDOSA HOT SPRINGS                  113"
-104.46200, 29.78700, "SPRINGS (LAS CIENEGAS)                86"
-102.37600, 29.80500, "null                                  90"
-112.72900, 39.61300, "BAKER (ABRAHAM CRATER) HOT SPRINGS  180"
-111.91800, 40.81500, "BECKS HOT SPRING                     133"
-113.38300, 37.16600, "BERRY SPRINGS                         75"
-112.86300, 38.13800, "BIG MAPLE SPRING                      70"
-112.64200, 40.74300, "BIG WARM SPRINGS                      72"
-111.80100, 40.17600, "BIRD ISLAND                           86"
-112.45400, 41.83300, "BLUE CREEK SPRING                     82"
-114.03800, 40.50200, "BLUE LAKE SPRING                      84"
-112.26600, 41.72200, "BOTHWELL WARM SPRINGS                 75"
-111.92900, 40.45800, "CAMP WILLIAMS                         70"
-111.52900, 40.03800, "CASTILLA SPRINGS                     104"
-111.65600, 41.03800, "COMO SPRINGS                          81"
-112.41300, 41.23900, "COMPTON SPRING                        72"
-112.87100, 38.77000, "COYOTE SPRING                         68"
-112.99900, 41.90100, "COYOTE SPRING                        109"
-113.48500, 39.42400, "COYOTE SPRING                         82"
-111.89500, 40.35300, "CRATER HOT SPRING                    111"
-112.08700, 41.65900, "CRYSTAL (MADSENS) HOT SPRINGS        129"
-111.91100, 40.48800, "CRYSTAL HOT SPRINGS                  187"
-112.05400, 41.83400, "CUTLER WARM SPRING                    73"
-112.42600, 40.17200, "DAVIS                                 68"
-112.74700, 40.53800, "DESERET LIVESTOCK                     75"
-112.73900, 40.55800, "DESERET LIVESTOCK SOUTH SPRING        72"
-112.73800, 40.56500, "DESERET LIVESTOCK SOUTH SPRINGS       73"
-111.33700, 40.11800, "DIAMOND FORK WARM SPRINGS             68"
-113.27200, 37.18900, "DIXIE (LAVERKIN) HOT SPRINGS         108"
-112.90400, 38.21700, "DOTSONS (RADIUM) WARM SPRING          91"
-111.92800, 40.54500, "EAST JORDAN CANAL                     73"
-111.89100, 40.33200, "FAULT ZONE SPRING                     90"
-113.39200, 39.84200, "FISH SPRINGS                          82"
-112.80300, 39.61600, "FUMAROLE BUTTE                        73"
-111.95800, 41.91700, "GANCHEFF SPRING                       88"
-114.03800, 39.46400, "GANDY WARM SPRINGS                    81"
-111.85800, 39.95500, "GOSHEN WARM SRINGS                    73"
-112.52400, 40.64700, "GRANTSVILLE WARM SPRINGS              77"
-113.52800, 37.13800, "GREEN SPRING                          75"
-112.49000, 38.85000, "HATTON HOT SPRING                    100"
-113.65400, 41.82900, "HEAD SPRING                           70"
-112.01700, 40.78800, "HOBO WARM SPRING                      84"
-112.17500, 41.13800, "HOOPER HOT SPRINGS                   140"
-112.70900, 40.61400, "HORSESHOE SPRINGS                     73"
-113.61000, 37.39300, "IRVINE SPRING                         70"
-112.11100, 38.60300, "JOHNSON WARM SPRING                   77"
-112.20200, 38.61300, "JOSEPH HOT SPRINGS                   147"
-113.95400, 41.56300, "KIMBER (ROSE) SPRING                  68"
-113.87700, 39.24900, "KNOLL SPRINGS                         68"
-113.26300, 41.82200, "L.G. CARTER SPRINGS                   77"
-113.31100, 41.81800, "LARSON SPRINGS                        70"
-112.43800, 37.94200, "LEFEVRE                               90"
-111.80600, 40.14600, "LINCOLN POINT WARM SPRINGS            90"
-112.25600, 41.58200, "LITTLE MOUNTAIN HOT SPRING           108"
-111.64500, 39.24600, "LIVINGSTON WARM SPRINGS               73"
-112.50600, 38.86400, "MEADOW HOT SPRINGS                   106"
-111.47500, 40.51700, "MIDWAY HOT SPRING                    115"
-111.48800, 40.52600, "MIDWAY HOT SPRINGS                   100"
-111.46800, 40.52500, "MIDWAY HOT SPRINGS                   104"
-112.10700, 38.63300, "MONROE (COOPER) HOT SPRINGS          169"
-112.42100, 40.39700, "MORGANS WARM SPRING                   80"
-113.41300, 39.88700, "NORTH SPRINGS                         82"
-111.92400, 41.23600, "OGDEN HOT SPRING                     135"
-111.82600, 41.32800, "PATIO SPRINGS                         68"
-112.44200, 41.44900, "POULSEN SPRING (SALT)                 72"
-113.39100, 41.83100, "PUGSLEY                               73"
-111.88100, 39.78800, "RAY LUNT SPRING                       68"
-112.53500, 37.17400, "RED CANYON                            72"
-112.09800, 38.63900, "RED HILL HOT SPRING                  171"
-112.90700, 40.65300, "REDLUM SPRING                         70"
-112.09600, 38.77400, "RICHFIELD WARM SPRINGS                73"
-112.84900, 38.50300, "ROOSEVELT HOT SPRINGS                133"
-112.42400, 40.39000, "RUSSELLS WARM SPRINGS                 72"
-111.82900, 38.98100, "SALT SPRING                           72"
-111.90500, 40.35000, "SARATOGA HOT SPRINGS                 111"
-113.63400, 37.17800, "SNOW SPRING                           70"
-113.51800, 39.33400, "SOUTH TULE SPRING                     77"
-109.22100, 40.46500, "SPLIT MOUNTAIN WARM SPRINGS           86"
-113.98600, 41.68700, "SPRING (HOT)                         108"
-112.87000, 38.76200, "SPRINGS                               68"
-112.28100, 41.64300, "SPRINGS                               72"
-112.04500, 39.89900, "SPRINGS                               72"
-111.69100, 39.18300, "STERLING (PEACOCK) WARM SPRING        72"
-112.23000, 41.57800, "STINKING HOT SPRINGS                 118"
-112.57800, 38.56000, "SULPHURDALE                           72"
-112.42400, 37.93700, "TEBBS                                 68"
-113.19700, 38.18600, "THERMO HOT SPRINGS                   185"
-113.20400, 38.17200, "THERMO HOT SPRINGS                   181"
-113.51500, 39.35000, "TULE SPRING                           82"
-113.86300, 39.40300, "TWIN SPRINGS                          68"
-112.15800, 41.85500, "UDY HOT SPRINGS                      124"
-112.91200, 38.18600, "US BLM                                91"
-112.62100, 40.73300, "UTAH FISH AND GAME DEPT               75"
-112.03100, 41.33800, "UTAH HOT SPRINGS                     138"
-113.68700, 37.33500, "VEYO HOT SPRING                       90"
-113.39900, 37.15800, "VIRGIN RIVER SPRING                   70"
-113.32700, 41.80800, "W.R. CARTER SPRINGS                   70"
-111.47800, 40.53600, "WARM DITCH SPRING                    115"
-110.42100, 37.70000, "WARM SPRING                           79"
-113.51300, 37.13700, "WARM SPRING                           75"
-113.61300, 41.61400, "WARM SPRING                           68"
-113.60300, 41.75600, "WARM SPRING                           81"
-110.82800, 40.44700, "WARM SPRINGS                          79"
-111.86700, 40.22800, "WARM SPRINGS                          75"
-111.86500, 40.23400, "WARM SPRINGS                          77"
-113.44700, 37.09600, "WARNER VALLEY SPRING                  70"
-111.89900, 40.78800, "WASATCH HOT SPRINGS                  108"
-112.90100, 38.15500, "WILLOW SPRING                         72"
-113.43000, 39.90600, "WILSON HEALTH SPRINGS                142"
-111.62200, 40.16700, "WOOD SPRINGS                          73"
-113.22000, 38.34000, "WOODHOUSE SPRING                      72"
-112.48400, 38.86900, "null                                  72"
-112.40600, 41.33600, "null                                  77"
-112.70300, 40.62500, "null                                  72"
-112.57900, 40.70300, "null                                  68"
-111.49300, 40.69700, "null                                  70"
-113.49100, 39.30500, "null                                  81"
-113.50400, 39.38800, "null                                  77"
-113.88100, 39.42900, "null                                  68"
-80.80600, 37.16000, "ALUM SPRINGS                          72"
-79.67300, 38.21800, "BOLAR SPRING                          73"
-79.65000, 38.23800, "BRAGG SPRING                          75"
-79.93300, 37.87000, "FALLING SPRING                        77"
-79.86100, 37.96300, "HEALING SPRINGS                       86"
-79.83000, 37.99700, "HOT SPRINGS                          106"
-79.98800, 37.86000, "LAYTON SPRING                         72"
-80.61900, 37.29000, "NEW RIVER WHITE SULPHUR SPRINGS       85"
-79.46200, 37.89800, "ROCKBRIDGE BATHS                      72"
-80.23800, 37.64500, "SWEET CHALYBEATE SPRING               75"
-79.78000, 38.05500, "WARM SPRINGS                          95"
-121.66700, 48.76300, "BAKER HOT SPRING                     108"
-121.72800, 45.70100, "COLLINS HOT SPRINGS                  122"
-121.80400, 48.78900, "DORR FUMAROLE FIELD                  194"
-121.18100, 46.04100, "FISH HATCHERY WARM SPRING             75"
-121.06200, 48.15000, "GAMMA HOT SPRINGS                    140"
-121.34200, 47.89200, "GARLAND MINERAL SPRINGS               84"
-121.39100, 47.48400, "GOLDMEYER HOT SPRINGS                127"
-122.26500, 46.37800, "GREEN RIVER SODA SPRING               86"
-119.47500, 48.97400, "HOT LAKE                             122"
-121.19200, 48.11800, "KENNEDY HOT SPRING                   100"
-121.13300, 45.82100, "KLICKITAT MINERAL SPRINGS             81"
-121.53600, 47.20100, "LESTER HOT SPRINGS                   120"
-121.81400, 46.75200, "LONGMIRE MINERAL SPRINGS              77"
-121.96200, 45.65800, "MOFFETTS (BONNEVILLE) HOT SPRINGS     97"
-121.49200, 46.20200, "MOUNT ADAMS FUMAROLES                150"
-121.75800, 46.85200, "MT RAINIER FUMAROLES                 162"
-122.19700, 46.19800, "MT ST HELENS FUMAROLES               190"
-121.56200, 46.73800, "OHANAPECOSH HOT SPRINGS              122"
-123.68200, 47.97700, "OLYMPIC HOT SPRINGS                  118"
-121.60000, 46.34500, "ORR CREEK WARM SPRINGS                72"
-121.70600, 46.57500, "PACKWOOD HOT SPRING                  100"
